[{"province": "Badghis", "city": "Qal eh-ye Now", "city_ascii": "Qal eh-ye", "country": "Afghanistan", "pop": "2997", "iso3": "AFG", "iso2": "AF", "lat": "34.98300013", "lng": "63.13329964"}, {"province": "Ghor", "city": "Chaghcharan", "city_ascii": "Chaghcharan", "country": "Afghanistan", "pop": "15000", "iso3": "AFG", "iso2": "AF", "lat": "34.5167011", "lng": "65.25000063"}, {"province": "Hilmand", "city": "Lashkar Gah", "city_ascii": "Lashkar Gah", "country": "Afghanistan", "pop": "201546", "iso3": "AFG", "iso2": "AF", "lat": "31.58299802", "lng": "64.35999955"}, {"province": "Nimroz", "city": "Zaranj", "city_ascii": "Zaranj", "country": "Afghanistan", "pop": "49851", "iso3": "AFG", "iso2": "AF", "lat": "31.11200108", "lng": "61.88699752"}, {"province": "Uruzgan", "city": "Tarin Kowt", "city_ascii": "Tarin Kowt", "country": "Afghanistan", "pop": "10000", "iso3": "AFG", "iso2": "AF", "lat": "32.63329815", "lng": "65.86669865"}, {"province": "Paktika", "city": "Zareh Sharan", "city_ascii": "Zareh Sharan", "country": "Afghanistan", "pop": "13737", "iso3": "AFG", "iso2": "AF", "lat": "32.85000016", "lng": "68.41670453"}, {"province": "Kunar", "city": "Asadabad", "city_ascii": "Asadabad", "country": "Afghanistan", "pop": "48400", "iso3": "AFG", "iso2": "AF", "lat": "34.86600004", "lng": "71.15000459"}, {"province": "Takhar", "city": "Taloqan", "city_ascii": "Taloqan", "country": "Afghanistan", "pop": "64256", "iso3": "AFG", "iso2": "AF", "lat": "36.72999904", "lng": "69.54000364"}, {"province": "Kapisa", "city": "Mahmud-E Eraqi", "city_ascii": "Mahmud-E Eraqi", "country": "Afghanistan", "pop": "7407", "iso3": "AFG", "iso2": "AF", "lat": "35.01669608", "lng": "69.33330065"}, {"province": "Laghman", "city": "Mehtar Lam", "city_ascii": "Mehtar Lam", "country": "Afghanistan", "pop": "17345", "iso3": "AFG", "iso2": "AF", "lat": "34.65000001", "lng": "70.16670052"}, {"province": "Logar", "city": "Baraki Barak", "city_ascii": "Baraki Barak", "country": "Afghanistan", "pop": "22305", "iso3": "AFG", "iso2": "AF", "lat": "33.9667021", "lng": "68.96670354"}, {"province": "Samangan", "city": "Aybak", "city_ascii": "Aybak", "country": "Afghanistan", "pop": "24000", "iso3": "AFG", "iso2": "AF", "lat": "36.26100015", "lng": "68.04000051"}, {"province": "Wardak", "city": "Mayda Shahr", "city_ascii": "Mayda Shahr", "country": "Afghanistan", "pop": "35008", "iso3": "AFG", "iso2": "AF", "lat": "34.45000209", "lng": "68.79999663"}, {"province": "Hirat", "city": "Karokh", "city_ascii": "Karokh", "country": "Afghanistan", "pop": "14388.5", "iso3": "AFG", "iso2": "AF", "lat": "34.48676963", "lng": "62.59177608"}, {"province": "Jawzjan", "city": "Sheberghan", "city_ascii": "Sheberghan", "country": "Afghanistan", "pop": "74441", "iso3": "AFG", "iso2": "AF", "lat": "36.65798077", "lng": "65.73830237"}, {"province": "Baghlan", "city": "Pol-e Khomri", "city_ascii": "Pol-e Khomri", "country": "Afghanistan", "pop": "41029", "iso3": "AFG", "iso2": "AF", "lat": "35.95107302", "lng": "68.70111894"}, {"province": "Balkh", "city": "Balkh", "city_ascii": "Balkh", "country": "Afghanistan", "pop": "147426", "iso3": "AFG", "iso2": "AF", "lat": "36.75011985", "lng": "66.89973018"}, {"province": "Faryab", "city": "Meymaneh", "city_ascii": "Meymaneh", "country": "Afghanistan", "pop": "199795", "iso3": "AFG", "iso2": "AF", "lat": "35.93022158", "lng": "64.77009273"}, {"province": "Faryab", "city": "Andkhvoy", "city_ascii": "Andkhvoy", "country": "Afghanistan", "pop": "50469", "iso3": "AFG", "iso2": "AF", "lat": "36.93165916", "lng": "65.10149369"}, {"province": "Zabul", "city": "Qalat", "city_ascii": "Qalat", "country": "Afghanistan", "pop": "12191", "iso3": "AFG", "iso2": "AF", "lat": "32.11226341", "lng": "66.8867594"}, {"province": "Ghazni", "city": "Ghazni", "city_ascii": "Ghazni", "country": "Afghanistan", "pop": "129892.5", "iso3": "AFG", "iso2": "AF", "lat": "33.56331179", "lng": "68.41782873"}, {"province": "Badakhshan", "city": "Feyzabad", "city_ascii": "Feyzabad", "country": "Afghanistan", "pop": "52490", "iso3": "AFG", "iso2": "AF", "lat": "37.12976076", "lng": "70.57924719"}, {"province": "Kunduz", "city": "Kondoz", "city_ascii": "Kondoz", "country": "Afghanistan", "pop": "210855.5", "iso3": "AFG", "iso2": "AF", "lat": "36.72795066", "lng": "68.87252966"}, {"province": "Nangarhar", "city": "Jalalabad", "city_ascii": "Jalalabad", "country": "Afghanistan", "pop": "401697", "iso3": "AFG", "iso2": "AF", "lat": "34.44152692", "lng": "70.43610347"}, {"province": "Parwan", "city": "Charikar", "city_ascii": "Charikar", "country": "Afghanistan", "pop": "53676", "iso3": "AFG", "iso2": "AF", "lat": "35.01826174", "lng": "69.16791215"}, {"province": "Paktya", "city": "Gardiz", "city_ascii": "Gardiz", "country": "Afghanistan", "pop": "82680.5", "iso3": "AFG", "iso2": "AF", "lat": "33.60005373", "lng": "69.21462764"}, {"province": "Bamyan", "city": "Bamian", "city_ascii": "Bamian", "country": "Afghanistan", "pop": "61863", "iso3": "AFG", "iso2": "AF", "lat": "34.82106447", "lng": "67.52103593"}, {"province": "Baghlan", "city": "Baghlan", "city_ascii": "Baghlan", "country": "Afghanistan", "pop": "163598.5", "iso3": "AFG", "iso2": "AF", "lat": "36.13933026", "lng": "68.69925858"}, {"province": "Farah", "city": "Farah", "city_ascii": "Farah", "country": "Afghanistan", "pop": "58604", "iso3": "AFG", "iso2": "AF", "lat": "32.39172955", "lng": "62.09681921"}, {"province": "Hirat", "city": "Herat", "city_ascii": "Herat", "country": "Afghanistan", "pop": "439232.5", "iso3": "AFG", "iso2": "AF", "lat": "34.33000917", "lng": "62.16999304"}, {"province": "Balkh", "city": "Mazar-e Sharif", "city_ascii": "Mazar-e Sharif", "country": "Afghanistan", "pop": "365432.5", "iso3": "AFG", "iso2": "AF", "lat": "36.69999371", "lng": "67.10002803"}, {"province": "Kandahar", "city": "Kandahar", "city_ascii": "Kandahar", "country": "Afghanistan", "pop": "613871", "iso3": "AFG", "iso2": "AF", "lat": "31.61002016", "lng": "65.69494584"}, {"province": "Kabul", "city": "Kabul", "city_ascii": "Kabul", "country": "Afghanistan", "pop": "3160266", "iso3": "AFG", "iso2": "AF", "lat": "34.51669029", "lng": "69.18326005"}, {"province": "Finstr\u00f6m", "city": "Mariehamn", "city_ascii": "Mariehamn", "country": "Aland", "pop": "10682", "iso3": "ALD", "iso2": "AX", "lat": "60.09699618", "lng": "19.94900447"}, {"province": "Durr\u00ebs", "city": "Kruje", "city_ascii": "Kruje", "country": "Albania", "pop": "21286", "iso3": "ALB", "iso2": "AL", "lat": "41.51899817", "lng": "19.79700359"}, {"province": "Fier", "city": "Fier", "city_ascii": "Fier", "country": "Albania", "pop": "69747.5", "iso3": "ALB", "iso2": "AL", "lat": "40.73000402", "lng": "19.5730026"}, {"province": "Fier", "city": "Lushnje", "city_ascii": "Lushnje", "country": "Albania", "pop": "41469", "iso3": "ALB", "iso2": "AL", "lat": "40.94000113", "lng": "19.71600348"}, {"province": "Shkod\u00ebr", "city": "Puke", "city_ascii": "Puke", "country": "Albania", "pop": "6495", "iso3": "ALB", "iso2": "AL", "lat": "42.03330302", "lng": "19.88330448"}, {"province": "Kuk\u00ebs", "city": "Bajram Curri", "city_ascii": "Bajram Curri", "country": "Albania", "pop": "7967", "iso3": "ALB", "iso2": "AL", "lat": "42.33330007", "lng": "20.08330257"}, {"province": "Kuk\u00ebs", "city": "Kukes", "city_ascii": "Kukes", "country": "Albania", "pop": "17832", "iso3": "ALB", "iso2": "AL", "lat": "42.08300107", "lng": "20.43399653"}, {"province": "Vlor\u00eb", "city": "Sarande", "city_ascii": "Sarande", "country": "Albania", "pop": "15147", "iso3": "ALB", "iso2": "AL", "lat": "39.87700212", "lng": "19.99999859"}, {"province": "Kor\u00e7\u00eb", "city": "Erseke", "city_ascii": "Erseke", "country": "Albania", "pop": "7890", "iso3": "ALB", "iso2": "AL", "lat": "40.33330213", "lng": "20.68329651"}, {"province": "Kor\u00e7\u00eb", "city": "Pogradec", "city_ascii": "Pogradec", "country": "Albania", "pop": "35000", "iso3": "ALB", "iso2": "AL", "lat": "40.89999612", "lng": "20.66400062"}, {"province": "Kor\u00e7\u00eb", "city": "Korce", "city_ascii": "Korce", "country": "Albania", "pop": "58259", "iso3": "ALB", "iso2": "AL", "lat": "40.61667601", "lng": "20.76666353"}, {"province": "Berat", "city": "Berat", "city_ascii": "Berat", "country": "Albania", "pop": "46866", "iso3": "ALB", "iso2": "AL", "lat": "40.70999705", "lng": "19.97199958"}, {"province": "Berat", "city": "Corovode", "city_ascii": "Corovode", "country": "Albania", "pop": "14046", "iso3": "ALB", "iso2": "AL", "lat": "40.51670403", "lng": "20.23329663"}, {"province": "Elbasan", "city": "Gramsh", "city_ascii": "Gramsh", "country": "Albania", "pop": "11556", "iso3": "ALB", "iso2": "AL", "lat": "40.86669601", "lng": "20.19999652"}, {"province": "Elbasan", "city": "Librazhd", "city_ascii": "Librazhd", "country": "Albania", "pop": "12691", "iso3": "ALB", "iso2": "AL", "lat": "41.20000211", "lng": "20.3667036"}, {"province": "Gjirokast\u00ebr", "city": "Tepelene", "city_ascii": "Tepelene", "country": "Albania", "pop": "11955", "iso3": "ALB", "iso2": "AL", "lat": "40.2832981", "lng": "20.03329854"}, {"province": "Gjirokast\u00ebr", "city": "Permet", "city_ascii": "Permet", "country": "Albania", "pop": "10686", "iso3": "ALB", "iso2": "AL", "lat": "40.23399605", "lng": "20.35199756"}, {"province": "Gjirokast\u00ebr", "city": "Gjirokaster", "city_ascii": "Gjirokaster", "country": "Albania", "pop": "23437", "iso3": "ALB", "iso2": "AL", "lat": "40.07899809", "lng": "20.14900256"}, {"province": "Dib\u00ebr", "city": "Peshkopi", "city_ascii": "Peshkopi", "country": "Albania", "pop": "14848", "iso3": "ALB", "iso2": "AL", "lat": "41.6833021", "lng": "20.43330349"}, {"province": "Dib\u00ebr", "city": "Burrel", "city_ascii": "Burrel", "country": "Albania", "pop": "15405", "iso3": "ALB", "iso2": "AL", "lat": "41.62599908", "lng": "20.01600053"}, {"province": "Lezh\u00eb", "city": "Lezhe", "city_ascii": "Lezhe", "country": "Albania", "pop": "18695", "iso3": "ALB", "iso2": "AL", "lat": "41.78799914", "lng": "19.65400254"}, {"province": "Lezh\u00eb", "city": "Rreshen", "city_ascii": "Rreshen", "country": "Albania", "pop": "10064", "iso3": "ALB", "iso2": "AL", "lat": "41.78330106", "lng": "19.81670459"}, {"province": "Vlor\u00eb", "city": "Vlore", "city_ascii": "Vlore", "country": "Albania", "pop": "89508.5", "iso3": "ALB", "iso2": "AL", "lat": "40.47736005", "lng": "19.49823075"}, {"province": "Elbasan", "city": "Elbasan", "city_ascii": "Elbasan", "country": "Albania", "pop": "132956.5", "iso3": "ALB", "iso2": "AL", "lat": "41.12150677", "lng": "20.08382808"}, {"province": "Durr\u00ebs", "city": "Durres", "city_ascii": "Durres", "country": "Albania", "pop": "132233", "iso3": "ALB", "iso2": "AL", "lat": "41.3177997", "lng": "19.44820797"}, {"province": "Shkod\u00ebr", "city": "Shkoder", "city_ascii": "Shkoder", "country": "Albania", "pop": "122006", "iso3": "ALB", "iso2": "AL", "lat": "42.06845156", "lng": "19.51884965"}, {"province": "Durr\u00ebs", "city": "Tirana", "city_ascii": "Tirana", "country": "Albania", "pop": "658318", "iso3": "ALB", "iso2": "AL", "lat": "41.32754071", "lng": "19.81888301"}, {"province": "Jijel", "city": "Jijel", "city_ascii": "Jijel", "country": "Algeria", "pop": "148000", "iso3": "DZA", "iso2": "DZ", "lat": "36.82199703", "lng": "5.76600356"}, {"province": "Tizi Ouzou", "city": "Tizi-Ouzou", "city_ascii": "Tizi-Ouzou", "country": "Algeria", "pop": "144000", "iso3": "DZA", "iso2": "DZ", "lat": "36.80000111", "lng": "4.033332556"}, {"province": "Bordj Bou Arr\u00e9ridj", "city": "Bordj Bou Arreridj", "city_ascii": "Bordj Bou Arreridj", "country": "Algeria", "pop": "134500", "iso3": "DZA", "iso2": "DZ", "lat": "36.05900401", "lng": "4.629996466"}, {"province": "M'Sila", "city": "M'sila", "city_ascii": "M'sila", "country": "Algeria", "pop": "125000", "iso3": "DZA", "iso2": "DZ", "lat": "35.7000031", "lng": "4.545000584"}, {"province": "Guelma", "city": "Guelma", "city_ascii": "Guelma", "country": "Algeria", "pop": "123590", "iso3": "DZA", "iso2": "DZ", "lat": "36.46600213", "lng": "7.427997486"}, {"province": "Oum el Bouaghi", "city": "Oum el Bouaghi", "city_ascii": "Oum el Bouaghi", "country": "Algeria", "pop": "100821", "iso3": "DZA", "iso2": "DZ", "lat": "35.84999715", "lng": "7.149996522"}, {"province": "Adrar", "city": "Timimoun", "city_ascii": "Timimoun", "country": "Algeria", "pop": "26568", "iso3": "DZA", "iso2": "DZ", "lat": "29.23652163", "lng": "0.269998737"}, {"province": "Sidi Bel Abb\u00e8s", "city": "Sidi bel Abbes", "city_ascii": "Sidi bel Abbes", "country": "Algeria", "pop": "200186.5", "iso3": "DZA", "iso2": "DZ", "lat": "35.19034426", "lng": "-0.639971559"}, {"province": "Tlemcen", "city": "Tlimcen", "city_ascii": "Tlimcen", "country": "Algeria", "pop": "181059", "iso3": "DZA", "iso2": "DZ", "lat": "34.89041424", "lng": "-1.32000757"}, {"province": "B\u00e9char", "city": "Beni Ounif", "city_ascii": "Beni Ounif", "country": "Algeria", "pop": "5628", "iso3": "DZA", "iso2": "DZ", "lat": "32.04926984", "lng": "-1.251381268"}, {"province": "B\u00e9char", "city": "Abadla", "city_ascii": "Abadla", "country": "Algeria", "pop": "14364", "iso3": "DZA", "iso2": "DZ", "lat": "31.01708478", "lng": "-2.733306317"}, {"province": "Na\u00e2ma", "city": "Sefra", "city_ascii": "Sefra", "country": "Algeria", "pop": "51118", "iso3": "DZA", "iso2": "DZ", "lat": "32.76041506", "lng": "-0.579949383"}, {"province": "Skikda", "city": "Skikda", "city_ascii": "Skikda", "country": "Algeria", "pop": "193941.5", "iso3": "DZA", "iso2": "DZ", "lat": "36.88042198", "lng": "6.899981647"}, {"province": "Illizi", "city": "Djanet", "city_ascii": "Djanet", "country": "Algeria", "pop": "666", "iso3": "DZA", "iso2": "DZ", "lat": "24.5529057", "lng": "9.482252969"}, {"province": "Illizi", "city": "I-n-Amenas", "city_ascii": "I-n-Amenas", "country": "Algeria", "pop": "216", "iso3": "DZA", "iso2": "DZ", "lat": "28.0503408", "lng": "9.550000772"}, {"province": "Tamanghasset", "city": "In Amguel", "city_ascii": "In Amguel", "country": "Algeria", "pop": "3030", "iso3": "DZA", "iso2": "DZ", "lat": "23.69394004", "lng": "5.164738727"}, {"province": "El Bayadh", "city": "El Bayadh", "city_ascii": "El Bayadh", "country": "Algeria", "pop": "67413", "iso3": "DZA", "iso2": "DZ", "lat": "33.6903583", "lng": "1.009953571"}, {"province": "Biskra", "city": "El Oued", "city_ascii": "El Oued", "country": "Algeria", "pop": "177497", "iso3": "DZA", "iso2": "DZ", "lat": "33.37040367", "lng": "6.859984089"}, {"province": "Ouargla", "city": "Hassi Messaoud", "city_ascii": "Hassi Messaoud", "country": "Algeria", "pop": "18124", "iso3": "DZA", "iso2": "DZ", "lat": "31.70234011", "lng": "6.054451862"}, {"province": "Chlef", "city": "Chlef", "city_ascii": "Chlef", "country": "Algeria", "pop": "449167", "iso3": "DZA", "iso2": "DZ", "lat": "36.17041363", "lng": "1.319960489"}, {"province": "Mascara", "city": "Mascara", "city_ascii": "Mascara", "country": "Algeria", "pop": "108230", "iso3": "DZA", "iso2": "DZ", "lat": "35.40040895", "lng": "0.14003251"}, {"province": "Mostaganem", "city": "Mostaganem", "city_ascii": "Mostaganem", "country": "Algeria", "pop": "159177", "iso3": "DZA", "iso2": "DZ", "lat": "35.940376", "lng": "0.089983885"}, {"province": "Sa\u00efda", "city": "Saida", "city_ascii": "Saida", "country": "Algeria", "pop": "134855", "iso3": "DZA", "iso2": "DZ", "lat": "34.84039146", "lng": "0.14003251"}, {"province": "Tiaret", "city": "Tiarat", "city_ascii": "Tiarat", "country": "Algeria", "pop": "184195", "iso3": "DZA", "iso2": "DZ", "lat": "35.38043601", "lng": "1.319960489"}, {"province": "B\u00e9ja\u00efa", "city": "Bejaia", "city_ascii": "Bejaia", "country": "Algeria", "pop": "274520", "iso3": "DZA", "iso2": "DZ", "lat": "36.76037762", "lng": "5.070015827"}, {"province": "Blida", "city": "Blida", "city_ascii": "Blida", "country": "Algeria", "pop": "388174", "iso3": "DZA", "iso2": "DZ", "lat": "36.4203467", "lng": "2.829997517"}, {"province": "Bouira", "city": "Bouira", "city_ascii": "Bouira", "country": "Algeria", "pop": "110144", "iso3": "DZA", "iso2": "DZ", "lat": "36.38047833", "lng": "3.900009724"}, {"province": "M\u00e9d\u00e9a", "city": "Medea", "city_ascii": "Medea", "country": "Algeria", "pop": "145863.5", "iso3": "DZA", "iso2": "DZ", "lat": "36.27040753", "lng": "2.770001179"}, {"province": "Souk Ahras", "city": "Souk Ahras", "city_ascii": "Souk Ahras", "country": "Algeria", "pop": "134947", "iso3": "DZA", "iso2": "DZ", "lat": "36.29038047", "lng": "7.949995075"}, {"province": "T\u00e9bessa", "city": "Tebessa", "city_ascii": "Tebessa", "country": "Algeria", "pop": "171742", "iso3": "DZA", "iso2": "DZ", "lat": "35.41043418", "lng": "8.120010537"}, {"province": "Adrar", "city": "Adrar", "city_ascii": "Adrar", "country": "Algeria", "pop": "56910", "iso3": "DZA", "iso2": "DZ", "lat": "27.86999005", "lng": "-0.289967083"}, {"province": "Adrar", "city": "Reggane", "city_ascii": "Reggane", "country": "Algeria", "pop": "22351.5", "iso3": "DZA", "iso2": "DZ", "lat": "26.69998395", "lng": "0.166645873"}, {"province": "B\u00e9char", "city": "Bechar", "city_ascii": "Bechar", "country": "Algeria", "pop": "142415.5", "iso3": "DZA", "iso2": "DZ", "lat": "31.61110537", "lng": "-2.230003704"}, {"province": "Tindouf", "city": "Tindouf", "city_ascii": "Tindouf", "country": "Algeria", "pop": "18270", "iso3": "DZA", "iso2": "DZ", "lat": "27.67418805", "lng": "-8.147782025"}, {"province": "Illizi", "city": "Illizi", "city_ascii": "Illizi", "country": "Algeria", "pop": "7293", "iso3": "DZA", "iso2": "DZ", "lat": "26.48335634", "lng": "8.466604369"}, {"province": "Tamanghasset", "city": "Arak", "city_ascii": "Arak", "country": "Algeria", "pop": "423251", "iso3": "DZA", "iso2": "DZ", "lat": "25.2799931", "lng": "3.749993041"}, {"province": "Tamanghasset", "city": "I-n-Salah", "city_ascii": "I-n-Salah", "country": "Algeria", "pop": "28632", "iso3": "DZA", "iso2": "DZ", "lat": "27.21664492", "lng": "2.466608845"}, {"province": "Gharda\u00efa", "city": "El Golea", "city_ascii": "El Golea", "country": "Algeria", "pop": "32049", "iso3": "DZA", "iso2": "DZ", "lat": "30.56662132", "lng": "2.883327595"}, {"province": "Laghouat", "city": "Laghouat", "city_ascii": "Laghouat", "country": "Algeria", "pop": "108279", "iso3": "DZA", "iso2": "DZ", "lat": "33.80998924", "lng": "2.880020303"}, {"province": "Ouargla", "city": "Touggourt", "city_ascii": "Touggourt", "country": "Algeria", "pop": "91499", "iso3": "DZA", "iso2": "DZ", "lat": "33.0999809", "lng": "6.05998124"}, {"province": "Ouargla", "city": "Ouargla", "city_ascii": "Ouargla", "country": "Algeria", "pop": "176271", "iso3": "DZA", "iso2": "DZ", "lat": "31.96997235", "lng": "5.340025186"}, {"province": "Biskra", "city": "Biskra", "city_ascii": "Biskra", "country": "Algeria", "pop": "202103", "iso3": "DZA", "iso2": "DZ", "lat": "34.85997683", "lng": "5.73002722"}, {"province": "Djelfa", "city": "Djelfa", "city_ascii": "Djelfa", "country": "Algeria", "pop": "170901", "iso3": "DZA", "iso2": "DZ", "lat": "34.67998781", "lng": "3.250023558"}, {"province": "S\u00e9tif", "city": "Setif", "city_ascii": "Setif", "country": "Algeria", "pop": "274744", "iso3": "DZA", "iso2": "DZ", "lat": "36.18002545", "lng": "5.399969847"}, {"province": "Batna", "city": "Batna", "city_ascii": "Batna", "country": "Algeria", "pop": "269467", "iso3": "DZA", "iso2": "DZ", "lat": "35.56995933", "lng": "6.170000365"}, {"province": "Annaba", "city": "Annaba", "city_ascii": "Annaba", "country": "Algeria", "pop": "355047", "iso3": "DZA", "iso2": "DZ", "lat": "36.92000612", "lng": "7.759980834"}, {"province": "Constantine", "city": "Constantine", "city_ascii": "Constantine", "country": "Algeria", "pop": "527638", "iso3": "DZA", "iso2": "DZ", "lat": "36.35998863", "lng": "6.599948281"}, {"province": "Oran", "city": "Oran", "city_ascii": "Oran", "country": "Algeria", "pop": "721992", "iso3": "DZA", "iso2": "DZ", "lat": "35.71000246", "lng": "-0.61997278"}, {"province": "Tamanghasset", "city": "Tamanrasset", "city_ascii": "Tamanrasset", "country": "Algeria", "pop": "71808", "iso3": "DZA", "iso2": "DZ", "lat": "22.78500327", "lng": "5.522804727"}, {"province": "Gharda\u00efa", "city": "Ghardaia", "city_ascii": "Ghardaia", "country": "Algeria", "pop": "125480", "iso3": "DZA", "iso2": "DZ", "lat": "32.48999229", "lng": "3.669997923"}, {"province": "Alger", "city": "Algiers", "city_ascii": "Algiers", "country": "Algeria", "pop": "2665831.5", "iso3": "DZA", "iso2": "DZ", "lat": "36.7630648", "lng": "3.05055253"}, {"province": "", "city": "Pago Pago", "city_ascii": "Pago Pago", "country": "American Samoa", "pop": "12038", "iso3": "ASM", "iso2": "AS", "lat": "-14.2766105", "lng": "-170.7066451"}, {"province": "", "city": "Andorra", "city_ascii": "Andorra", "country": "Andorra", "pop": "38127", "iso3": "AND", "iso2": "AD", "lat": "42.50000144", "lng": "1.516485961"}, {"province": "Cuando Cubango", "city": "Mucusso", "city_ascii": "Mucusso", "country": "Angola", "pop": "100", "iso3": "AGO", "iso2": "AO", "lat": "-18.01953449", "lng": "21.42999914"}, {"province": "Lunda Norte", "city": "Lucapa", "city_ascii": "Lucapa", "country": "Angola", "pop": "25578", "iso3": "AGO", "iso2": "AO", "lat": "-8.419603659", "lng": "20.74001542"}, {"province": "Lunda Norte", "city": "Capenda-Camulemba", "city_ascii": "Capenda-Camulemba", "country": "Angola", "pop": "79842.5", "iso3": "AGO", "iso2": "AO", "lat": "-9.4195943", "lng": "18.43002722"}, {"province": "Lunda Sul", "city": "Saurimo", "city_ascii": "Saurimo", "country": "Angola", "pop": "40907", "iso3": "AGO", "iso2": "AO", "lat": "-9.659579652", "lng": "20.39001094"}, {"province": "Lunda Sul", "city": "Muconda", "city_ascii": "Muconda", "country": "Angola", "pop": "2324", "iso3": "AGO", "iso2": "AO", "lat": "-10.59962563", "lng": "21.31998002"}, {"province": "Lunda Sul", "city": "Cacolo", "city_ascii": "Cacolo", "country": "Angola", "pop": "984", "iso3": "AGO", "iso2": "AO", "lat": "-10.14962726", "lng": "19.2600024"}, {"province": "Bengo", "city": "Caxito", "city_ascii": "Caxito", "country": "Angola", "pop": "15665.5", "iso3": "AGO", "iso2": "AO", "lat": "-8.579542217", "lng": "13.65998246"}, {"province": "Cuanza Norte", "city": "Camabatela", "city_ascii": "Camabatela", "country": "Angola", "pop": "12731", "iso3": "AGO", "iso2": "AO", "lat": "-8.189591859", "lng": "15.37000728"}, {"province": "Cuanza Norte", "city": "Ndalatando", "city_ascii": "Ndalatando", "country": "Angola", "pop": "8144", "iso3": "AGO", "iso2": "AO", "lat": "-9.299549948", "lng": "14.90998368"}, {"province": "Cuanza Sul", "city": "Quibala", "city_ascii": "Quibala", "country": "Angola", "pop": "5248.5", "iso3": "AGO", "iso2": "AO", "lat": "-10.72959186", "lng": "14.97995357"}, {"province": "Cuanza Sul", "city": "Calulo", "city_ascii": "Calulo", "country": "Angola", "pop": "795", "iso3": "AGO", "iso2": "AO", "lat": "-9.999610577", "lng": "14.90001013"}, {"province": "Cuanza Sul", "city": "Waku Kungo", "city_ascii": "Waku Kungo", "country": "Angola", "pop": "11519.5", "iso3": "AGO", "iso2": "AO", "lat": "-11.35952757", "lng": "15.1199967"}, {"province": "U\u00edge", "city": "Songo", "city_ascii": "Songo", "country": "Angola", "pop": "10579", "iso3": "AGO", "iso2": "AO", "lat": "-7.349591452", "lng": "14.84998734"}, {"province": "Zaire", "city": "Mbanza-Congo", "city_ascii": "Mbanza-Congo", "country": "Angola", "pop": "42201", "iso3": "AGO", "iso2": "AO", "lat": "-6.269605694", "lng": "14.23999874"}, {"province": "Zaire", "city": "Nzeto", "city_ascii": "Nzeto", "country": "Angola", "pop": "19705.5", "iso3": "AGO", "iso2": "AO", "lat": "-7.229598776", "lng": "12.86003129"}, {"province": "Zaire", "city": "Soyo", "city_ascii": "Soyo", "country": "Angola", "pop": "65329", "iso3": "AGO", "iso2": "AO", "lat": "-6.129614239", "lng": "12.36998368"}, {"province": "Cabinda", "city": "Cabinda", "city_ascii": "Cabinda", "country": "Angola", "pop": "78905.5", "iso3": "AGO", "iso2": "AO", "lat": "-5.55962319", "lng": "12.18999467"}, {"province": "Bi\u00e9", "city": "Calucinga", "city_ascii": "Calucinga", "country": "Angola", "pop": "531", "iso3": "AGO", "iso2": "AO", "lat": "-11.31958169", "lng": "16.19998246"}, {"province": "Bi\u00e9", "city": "Camacupa", "city_ascii": "Camacupa", "country": "Angola", "pop": "19489", "iso3": "AGO", "iso2": "AO", "lat": "-12.01959064", "lng": "17.46998246"}, {"province": "Benguela", "city": "Cubal", "city_ascii": "Cubal", "country": "Angola", "pop": "4837", "iso3": "AGO", "iso2": "AO", "lat": "-13.03958006", "lng": "14.23999874"}, {"province": "Cuando Cubango", "city": "Mavinga", "city_ascii": "Mavinga", "country": "Angola", "pop": "30000", "iso3": "AGO", "iso2": "AO", "lat": "-15.7895414", "lng": "20.36003861"}, {"province": "Cuando Cubango", "city": "Cuito Caunavale", "city_ascii": "Cuito Caunavale", "country": "Angola", "pop": "149", "iso3": "AGO", "iso2": "AO", "lat": "-15.15960569", "lng": "19.16998205"}, {"province": "Cuando Cubango", "city": "Luiana", "city_ascii": "Luiana", "country": "Angola", "pop": "150", "iso3": "AGO", "iso2": "AO", "lat": "-17.36954832", "lng": "22.99998083"}, {"province": "Cunene", "city": "Ondjiva", "city_ascii": "Ondjiva", "country": "Angola", "pop": "8748", "iso3": "AGO", "iso2": "AO", "lat": "-17.06961831", "lng": "15.73003699"}, {"province": "Cunene", "city": "Chitado", "city_ascii": "Chitado", "country": "Angola", "pop": "468.5", "iso3": "AGO", "iso2": "AO", "lat": "-17.31962889", "lng": "13.92001827"}, {"province": "Hu\u00edla", "city": "Chibemba", "city_ascii": "Chibemba", "country": "Angola", "pop": "1502", "iso3": "AGO", "iso2": "AO", "lat": "-15.74959552", "lng": "14.0800085"}, {"province": "Hu\u00edla", "city": "Chibia", "city_ascii": "Chibia", "country": "Angola", "pop": "1411", "iso3": "AGO", "iso2": "AO", "lat": "-15.1896297", "lng": "13.69000647"}, {"province": "Hu\u00edla", "city": "Quipungo", "city_ascii": "Quipungo", "country": "Angola", "pop": "186", "iso3": "AGO", "iso2": "AO", "lat": "-14.82954832", "lng": "14.55000565"}, {"province": "Moxico", "city": "Luau", "city_ascii": "Luau", "country": "Angola", "pop": "9964", "iso3": "AGO", "iso2": "AO", "lat": "-10.7095414", "lng": "22.23000199"}, {"province": "Moxico", "city": "Cangamba", "city_ascii": "Cangamba", "country": "Angola", "pop": "1307", "iso3": "AGO", "iso2": "AO", "lat": "-13.69959145", "lng": "19.86001745"}, {"province": "Moxico", "city": "Lumbala Nguimbo", "city_ascii": "Lumbala Nguimbo", "country": "Angola", "pop": "25", "iso3": "AGO", "iso2": "AO", "lat": "-14.09961871", "lng": "21.44002437"}, {"province": "Moxico", "city": "Cazombo", "city_ascii": "Cazombo", "country": "Angola", "pop": "298", "iso3": "AGO", "iso2": "AO", "lat": "-11.88957273", "lng": "22.90003861"}, {"province": "Lunda Norte", "city": "Dundo", "city_ascii": "Dundo", "country": "Angola", "pop": "11985", "iso3": "AGO", "iso2": "AO", "lat": "-7.380028871", "lng": "20.82998409"}, {"province": "Bengo", "city": "Ambriz", "city_ascii": "Ambriz", "country": "Angola", "pop": "17000", "iso3": "AGO", "iso2": "AO", "lat": "-7.85498696", "lng": "13.12502803"}, {"province": "Cuanza Norte", "city": "Dondo", "city_ascii": "Dondo", "country": "Angola", "pop": "2353", "iso3": "AGO", "iso2": "AO", "lat": "-9.690017071", "lng": "14.43001298"}, {"province": "Cuanza Sul", "city": "Sumbe", "city_ascii": "Sumbe", "country": "Angola", "pop": "29638.5", "iso3": "AGO", "iso2": "AO", "lat": "-11.21002765", "lng": "13.8499967"}, {"province": "U\u00edge", "city": "Uige", "city_ascii": "Uige", "country": "Angola", "pop": "56787.5", "iso3": "AGO", "iso2": "AO", "lat": "-7.620014222", "lng": "15.04997514"}, {"province": "Bi\u00e9", "city": "Kuito", "city_ascii": "Kuito", "country": "Angola", "pop": "113955", "iso3": "AGO", "iso2": "AO", "lat": "-12.38003375", "lng": "16.93998897"}, {"province": "Benguela", "city": "Lobito", "city_ascii": "Lobito", "country": "Angola", "pop": "170733", "iso3": "AGO", "iso2": "AO", "lat": "-12.37000853", "lng": "13.54123002"}, {"province": "Cunene", "city": "Xangongo", "city_ascii": "Xangongo", "country": "Angola", "pop": "447", "iso3": "AGO", "iso2": "AO", "lat": "-16.74002602", "lng": "14.96998002"}, {"province": "Moxico", "city": "Luena", "city_ascii": "Luena", "country": "Angola", "pop": "17276.5", "iso3": "AGO", "iso2": "AO", "lat": "-11.79004393", "lng": "19.90001501"}, {"province": "Namibe", "city": "T\u00f4mbua", "city_ascii": "Tombua", "country": "Angola", "pop": "40000", "iso3": "AGO", "iso2": "AO", "lat": "-15.80003172", "lng": "11.85998897"}, {"province": "Malanje", "city": "Malanje", "city_ascii": "Malanje", "country": "Angola", "pop": "106451", "iso3": "AGO", "iso2": "AO", "lat": "-9.540000388", "lng": "16.34002559"}, {"province": "Benguela", "city": "Benguela", "city_ascii": "Benguela", "country": "Angola", "pop": "142017", "iso3": "AGO", "iso2": "AO", "lat": "-12.57826455", "lng": "13.40723303"}, {"province": "Hu\u00edla", "city": "Lubango", "city_ascii": "Lubango", "country": "Angola", "pop": "114086.5", "iso3": "AGO", "iso2": "AO", "lat": "-14.91000853", "lng": "13.49001868"}, {"province": "Namibe", "city": "Namibe", "city_ascii": "Namibe", "country": "Angola", "pop": "128130.5", "iso3": "AGO", "iso2": "AO", "lat": "-15.19004311", "lng": "12.16002234"}, {"province": "Cuando Cubango", "city": "Menongue", "city_ascii": "Menongue", "country": "Angola", "pop": "13030", "iso3": "AGO", "iso2": "AO", "lat": "-14.66661253", "lng": "17.69999426"}, {"province": "Huambo", "city": "Huambo", "city_ascii": "Huambo", "country": "Angola", "pop": "986000", "iso3": "AGO", "iso2": "AO", "lat": "-12.74998533", "lng": "15.76000932"}, {"province": "Luanda", "city": "Luanda", "city_ascii": "Luanda", "country": "Angola", "pop": "3562086", "iso3": "AGO", "iso2": "AO", "lat": "-8.838286114", "lng": "13.23442704"}, {"province": "", "city": "Artigas Base", "city_ascii": "Artigas Base", "country": "Antarctica", "pop": "34.5", "iso3": "ATA", "iso2": "AQ", "lat": "-62.17388669", "lng": "-58.86386407"}, {"province": "", "city": "Capitan Arturo Prat Station", "city_ascii": "Capitan Arturo Prat Station", "country": "Antarctica", "pop": "41", "iso3": "ATA", "iso2": "AQ", "lat": "-62.49950682", "lng": "-59.68331852"}, {"province": "", "city": "Marambio Station", "city_ascii": "Vicecomodoro Marambio Station", "country": "Antarctica", "pop": "102.5", "iso3": "ATA", "iso2": "AQ", "lat": "-64.23288939", "lng": "-56.6500153"}, {"province": "", "city": "Zucchelli Station", "city_ascii": "Terra Nova Bay", "country": "Antarctica", "pop": "60", "iso3": "ATA", "iso2": "AQ", "lat": "-74.61919259", "lng": "164.2190271"}, {"province": "", "city": "Rothera Station", "city_ascii": "Rothera Station", "country": "Antarctica", "pop": "76", "iso3": "ATA", "iso2": "AQ", "lat": "-67.5647756", "lng": "-68.12354055"}, {"province": "", "city": "Palmer Station", "city_ascii": "Palmer Station", "country": "Antarctica", "pop": "30.5", "iso3": "ATA", "iso2": "AQ", "lat": "-64.76241335", "lng": "-64.0468756"}, {"province": "", "city": "Base Presidente Montalva", "city_ascii": "Teniente Rodolfo Marsh Station", "country": "Antarctica", "pop": "115", "iso3": "ATA", "iso2": "AQ", "lat": "-62.18274357", "lng": "-58.90765233"}, {"province": "", "city": "Carlini Station", "city_ascii": "Teniente Jubany Station", "country": "Antarctica", "pop": "40", "iso3": "ATA", "iso2": "AQ", "lat": "-62.22414386", "lng": "-58.65047599"}, {"province": "", "city": "King Sejong Station", "city_ascii": "King Sejong Station", "country": "Antarctica", "pop": "53.5", "iso3": "ATA", "iso2": "AQ", "lat": "-62.2248534", "lng": "-58.77159876"}, {"province": "", "city": "Great Wall Station", "city_ascii": "Great Wall Station", "country": "Antarctica", "pop": "26", "iso3": "ATA", "iso2": "AQ", "lat": "-62.21631997", "lng": "-58.9666956"}, {"province": "", "city": "Escudero Base", "city_ascii": "Escudero Station", "country": "Antarctica", "pop": "20", "iso3": "ATA", "iso2": "AQ", "lat": "-62.19496251", "lng": "-58.95266582"}, {"province": "", "city": "Elephant Island", "city_ascii": "Elephant Island, South Shetland Islands", "country": "Antarctica", "pop": "3", "iso3": "ATA", "iso2": "AQ", "lat": "-61.99958901", "lng": "-57.99998458"}, {"province": "", "city": "Scott Base", "city_ascii": "Scott Base", "country": "Antarctica", "pop": "49.5", "iso3": "ATA", "iso2": "AQ", "lat": "-77.84693819", "lng": "166.7491023"}, {"province": "", "city": "McMurdo Station", "city_ascii": "McMurdo Station", "country": "Antarctica", "pop": "600", "iso3": "ATA", "iso2": "AQ", "lat": "-77.73228239", "lng": "166.8694157"}, {"province": "", "city": "Zhongshan Station", "city_ascii": "Zhongshan Station", "country": "Antarctica", "pop": "42.5", "iso3": "ATA", "iso2": "AQ", "lat": "-69.43406299", "lng": "76.33929808"}, {"province": "", "city": "Vostok", "city_ascii": "Vostok", "country": "Antarctica", "pop": "19", "iso3": "ATA", "iso2": "AQ", "lat": "-78.46628416", "lng": "106.8000337"}, {"province": "", "city": "Peter I Island", "city_ascii": "Peter I Island", "country": "Antarctica", "pop": "0.5", "iso3": "ATA", "iso2": "AQ", "lat": "-68.83286701", "lng": "90.49999508"}, {"province": "", "city": "Mirny Station", "city_ascii": "Mirny Station", "country": "Antarctica", "pop": "114.5", "iso3": "ATA", "iso2": "AQ", "lat": "-66.57552952", "lng": "93.00628846"}, {"province": "", "city": "Mawson Station", "city_ascii": "Mawson Station", "country": "Antarctica", "pop": "40", "iso3": "ATA", "iso2": "AQ", "lat": "-67.61452032", "lng": "62.87500073"}, {"province": "", "city": "Davis Station", "city_ascii": "Davis Station", "country": "Antarctica", "pop": "45", "iso3": "ATA", "iso2": "AQ", "lat": "-68.77767439", "lng": "78.14073509"}, {"province": "", "city": "Concordia Research Station", "city_ascii": "Concordia Research Station", "country": "Antarctica", "pop": "15", "iso3": "ATA", "iso2": "AQ", "lat": "-74.66630939", "lng": "124.1670357"}, {"province": "", "city": "Casey Station", "city_ascii": "Casey Station", "country": "Antarctica", "pop": "125", "iso3": "ATA", "iso2": "AQ", "lat": "-66.28608614", "lng": "110.536214"}, {"province": "", "city": "Amundsen\u2013Scott South Pole Station", "city_ascii": "Amundsen\u2013Scott South Pole Station", "country": "Antarctica", "pop": "125", "iso3": "ATA", "iso2": "AQ", "lat": "-89.98289386", "lng": "139.2669926"}, {"province": "", "city": "Wasa Station", "city_ascii": "Wasa Station", "country": "Antarctica", "pop": "5", "iso3": "ATA", "iso2": "AQ", "lat": "-73.0496122", "lng": "-13.41671106"}, {"province": "", "city": "Troll Station", "city_ascii": "Troll Station", "country": "Antarctica", "pop": "25.5", "iso3": "ATA", "iso2": "AQ", "lat": "-72.01629026", "lng": "2.533323119"}, {"province": "", "city": "Svea Station", "city_ascii": "Svea Station", "country": "Antarctica", "pop": "5", "iso3": "ATA", "iso2": "AQ", "lat": "-74.58290363", "lng": "-11.21669031"}, {"province": "", "city": "Novolazarevskaya Station", "city_ascii": "Novolazarevskaya Station", "country": "Antarctica", "pop": "35", "iso3": "ATA", "iso2": "AQ", "lat": "-71.30123475", "lng": "-11.8502129"}, {"province": "", "city": "Neumayer Station III", "city_ascii": "Neumayer", "country": "Antarctica", "pop": "40", "iso3": "ATA", "iso2": "AQ", "lat": "-70.89039668", "lng": "-7.838438004"}, {"province": "", "city": "Maitri Station", "city_ascii": "Maitri Station", "country": "Antarctica", "pop": "33", "iso3": "ATA", "iso2": "AQ", "lat": "-70.7821796", "lng": "11.7304584"}, {"province": "", "city": "Halley Station", "city_ascii": "Halley Station", "country": "Antarctica", "pop": "43", "iso3": "ATA", "iso2": "AQ", "lat": "-76.09226319", "lng": "-26.4741567"}, {"province": "", "city": "Belgrano Station", "city_ascii": "General Belgrano Station", "country": "Antarctica", "pop": "57", "iso3": "ATA", "iso2": "AQ", "lat": "-77.86632078", "lng": "-34.61668319"}, {"province": "", "city": "Camp Sobral", "city_ascii": "Doctor Sobral", "country": "Antarctica", "pop": "20", "iso3": "ATA", "iso2": "AQ", "lat": "-81.17908472", "lng": "-40.50153152"}, {"province": "", "city": "Aboa Station", "city_ascii": "Aboa Station", "country": "Antarctica", "pop": "15", "iso3": "ATA", "iso2": "AQ", "lat": "-75.04959349", "lng": "-13.41671106"}, {"province": "", "city": "San Mart\u00edn Station", "city_ascii": "San Mart\u00edn Station", "country": "Antarctica", "pop": "19", "iso3": "ATA", "iso2": "AQ", "lat": "-68.1163216", "lng": "-67.0999976"}, {"province": "", "city": "Gen. O'Higgins Station", "city_ascii": "General Bernado O'Higgins Station", "country": "Antarctica", "pop": "30", "iso3": "ATA", "iso2": "AQ", "lat": "-63.32841823", "lng": "-57.88959352"}, {"province": "", "city": "Esperanza Station", "city_ascii": "Esperanza Station", "country": "Antarctica", "pop": "152.5", "iso3": "ATA", "iso2": "AQ", "lat": "-63.37532865", "lng": "-57.02590151"}, {"province": "", "city": "Orcadas Station", "city_ascii": "Orcadas Station", "country": "Antarctica", "pop": "29.5", "iso3": "ATA", "iso2": "AQ", "lat": "-60.7328963", "lng": "-44.73330082"}, {"province": "", "city": "Signy Research Station", "city_ascii": "Signy Island", "country": "Antarctica", "pop": "4", "iso3": "ATA", "iso2": "AQ", "lat": "-60.63130815", "lng": "-45.60070332"}, {"province": "", "city": "Dumont d'Urville Station", "city_ascii": "Dumont d'Urville Station", "country": "Antarctica", "pop": "75", "iso3": "ATA", "iso2": "AQ", "lat": "-66.77505091", "lng": "139.9636836"}, {"province": "", "city": "Showa Station", "city_ascii": "Showa Station", "country": "Antarctica", "pop": "50", "iso3": "ATA", "iso2": "AQ", "lat": "-69.03039249", "lng": "39.7460831"}, {"province": "", "city": "Saint John's", "city_ascii": "Saint John's", "country": "Antigua and Barbuda", "pop": "29862.5", "iso3": "ATG", "iso2": "AG", "lat": "17.11803652", "lng": "-61.85003382"}, {"province": "Santa Cruz", "city": "28 de Noviembre", "city_ascii": "28 de Noviembre", "country": "Argentina", "pop": "5300", "iso3": "ARG", "iso2": "AR", "lat": "-51.65003986", "lng": "-72.30001612"}, {"province": "Santa Cruz", "city": "Gobernador Gregores", "city_ascii": "Gobernador Gregores", "country": "Argentina", "pop": "2519", "iso3": "ARG", "iso2": "AR", "lat": "-48.76659829", "lng": "-70.25001205"}, {"province": "Santa Cruz", "city": "Comondante Luis Piedrabuena", "city_ascii": "Comondante Luis Piedrabuena", "country": "Argentina", "pop": "410", "iso3": "ARG", "iso2": "AR", "lat": "-49.97454865", "lng": "-68.90347273"}, {"province": "Chubut", "city": "Paso Rio Mayo", "city_ascii": "Paso Rio Mayo", "country": "Argentina", "pop": "1825", "iso3": "ARG", "iso2": "AR", "lat": "-45.68337563", "lng": "-70.26657434"}, {"province": "Chubut", "city": "Alto Rio Sanguer", "city_ascii": "Alto Rio Sanguer", "country": "Argentina", "pop": "1548", "iso3": "ARG", "iso2": "AR", "lat": "-45.03328611", "lng": "-70.83328394"}, {"province": "Chubut", "city": "El Maiten", "city_ascii": "El Maiten", "country": "Argentina", "pop": "4269", "iso3": "ARG", "iso2": "AR", "lat": "-42.05000568", "lng": "-71.16662276"}, {"province": "Chubut", "city": "Puerto Madryn", "city_ascii": "Puerto Madryn", "country": "Argentina", "pop": "61159", "iso3": "ARG", "iso2": "AR", "lat": "-42.77001341", "lng": "-65.04001998"}, {"province": "Chubut", "city": "Trelew", "city_ascii": "Trelew", "country": "Argentina", "pop": "93128.5", "iso3": "ARG", "iso2": "AR", "lat": "-43.25003579", "lng": "-65.3299506"}, {"province": "Mendoza", "city": "Las Heras", "city_ascii": "Las Heras", "country": "Argentina", "pop": "66663", "iso3": "ARG", "iso2": "AR", "lat": "-32.82503904", "lng": "-68.80167668"}, {"province": "Mendoza", "city": "San Martin", "city_ascii": "San Martin", "country": "Argentina", "pop": "99974", "iso3": "ARG", "iso2": "AR", "lat": "-33.06998533", "lng": "-68.49001612"}, {"province": "Mendoza", "city": "Uspallata", "city_ascii": "Uspallata", "country": "Argentina", "pop": "2390", "iso3": "ARG", "iso2": "AR", "lat": "-32.59311522", "lng": "-69.34598454"}, {"province": "Neuqu\u00e9n", "city": "Cutral Co", "city_ascii": "Cutral Co", "country": "Argentina", "pop": "47597", "iso3": "ARG", "iso2": "AR", "lat": "-38.94001463", "lng": "-69.24002202"}, {"province": "Ciudad de Buenos Aires", "city": "Punta Alta", "city_ascii": "Punta Alta", "country": "Argentina", "pop": "55969.5", "iso3": "ARG", "iso2": "AR", "lat": "-38.87996662", "lng": "-62.0799681"}, {"province": "Ciudad de Buenos Aires", "city": "San Nicolas", "city_ascii": "San Nicolas", "country": "Argentina", "pop": "117123.5", "iso3": "ARG", "iso2": "AR", "lat": "-33.33002114", "lng": "-60.24000289"}, {"province": "Ciudad de Buenos Aires", "city": "Campana", "city_ascii": "Campana", "country": "Argentina", "pop": "77149.5", "iso3": "ARG", "iso2": "AR", "lat": "-34.15999632", "lng": "-58.95997766"}, {"province": "Ciudad de Buenos Aires", "city": "Chacabuco", "city_ascii": "Chacabuco", "country": "Argentina", "pop": "26645", "iso3": "ARG", "iso2": "AR", "lat": "-34.65004393", "lng": "-60.48998763"}, {"province": "Ciudad de Buenos Aires", "city": "Mercedes", "city_ascii": "Mercedes", "country": "Argentina", "pop": "48408.5", "iso3": "ARG", "iso2": "AR", "lat": "-34.66001748", "lng": "-59.44002588"}, {"province": "Ciudad de Buenos Aires", "city": "Lincoln", "city_ascii": "Lincoln", "country": "Argentina", "pop": "19924", "iso3": "ARG", "iso2": "AR", "lat": "-34.88000405", "lng": "-61.53994938"}, {"province": "Ciudad de Buenos Aires", "city": "Chivilcoy", "city_ascii": "Chivilcoy", "country": "Argentina", "pop": "43719", "iso3": "ARG", "iso2": "AR", "lat": "-34.89995115", "lng": "-60.03998926"}, {"province": "Ciudad de Buenos Aires", "city": "Veinticinco de Mayo", "city_ascii": "Veinticinco de Mayo", "country": "Argentina", "pop": "18749", "iso3": "ARG", "iso2": "AR", "lat": "-35.42999632", "lng": "-60.17998071"}, {"province": "Ciudad de Buenos Aires", "city": "Nueve de Julio", "city_ascii": "Nueve de Julio", "country": "Argentina", "pop": "26716", "iso3": "ARG", "iso2": "AR", "lat": "-35.44596434", "lng": "-60.88998906"}, {"province": "Ciudad de Buenos Aires", "city": "Dolores", "city_ascii": "Dolores", "country": "Argentina", "pop": "21586.5", "iso3": "ARG", "iso2": "AR", "lat": "-36.33004474", "lng": "-57.68997766"}, {"province": "Ciudad de Buenos Aires", "city": "Pedro Luro", "city_ascii": "Pedro Luro", "country": "Argentina", "pop": "7100", "iso3": "ARG", "iso2": "AR", "lat": "-39.48334064", "lng": "-62.68331629"}, {"province": "Ciudad de Buenos Aires", "city": "Tres Arroyos", "city_ascii": "Tres Arroyos", "country": "Argentina", "pop": "34773.5", "iso3": "ARG", "iso2": "AR", "lat": "-38.3699719", "lng": "-60.26994938"}, {"province": "Ciudad de Buenos Aires", "city": "Coronel Suarez", "city_ascii": "Coronel Suarez", "country": "Argentina", "pop": "20713", "iso3": "ARG", "iso2": "AR", "lat": "-37.46661619", "lng": "-61.9166189"}, {"province": "Ciudad de Buenos Aires", "city": "Balcarce", "city_ascii": "Balcarce", "country": "Argentina", "pop": "18967", "iso3": "ARG", "iso2": "AR", "lat": "-37.83331216", "lng": "-58.24999516"}, {"province": "R\u00edo Negro", "city": "25 de Mayo", "city_ascii": "25 de Mayo", "country": "Argentina", "pop": "17430", "iso3": "ARG", "iso2": "AR", "lat": "-37.80003253", "lng": "-67.68329533"}, {"province": "R\u00edo Negro", "city": "General Roca", "city_ascii": "General Roca", "country": "Argentina", "pop": "38578", "iso3": "ARG", "iso2": "AR", "lat": "-39.01995807", "lng": "-67.60996647"}, {"province": "R\u00edo Negro", "city": "Comallo", "city_ascii": "Comallo", "country": "Argentina", "pop": "741", "iso3": "ARG", "iso2": "AR", "lat": "-41.03332355", "lng": "-70.26657434"}, {"province": "R\u00edo Negro", "city": "Ingeniero Jacobacci", "city_ascii": "Ingeniero Jacobacci", "country": "Argentina", "pop": "5719", "iso3": "ARG", "iso2": "AR", "lat": "-41.30002562", "lng": "-69.58330855"}, {"province": "R\u00edo Negro", "city": "General Conesa", "city_ascii": "General Conesa", "country": "Argentina", "pop": "2958", "iso3": "ARG", "iso2": "AR", "lat": "-40.10004718", "lng": "-64.43328699"}, {"province": "R\u00edo Negro", "city": "Choele Choel", "city_ascii": "Choele Choel", "country": "Argentina", "pop": "9895.5", "iso3": "ARG", "iso2": "AR", "lat": "-39.26660968", "lng": "-65.68331405"}, {"province": "C\u00f3rdoba", "city": "San Francisco", "city_ascii": "San Francisco", "country": "Argentina", "pop": "43231", "iso3": "ARG", "iso2": "AR", "lat": "-31.43003375", "lng": "-62.08996749"}, {"province": "C\u00f3rdoba", "city": "Alta Gracia", "city_ascii": "Alta Gracia", "country": "Argentina", "pop": "30593", "iso3": "ARG", "iso2": "AR", "lat": "-31.65999388", "lng": "-64.4299797"}, {"province": "C\u00f3rdoba", "city": "Villa Maria", "city_ascii": "Villa Maria", "country": "Argentina", "pop": "76701", "iso3": "ARG", "iso2": "AR", "lat": "-32.41002562", "lng": "-63.26002527"}, {"province": "C\u00f3rdoba", "city": "Bell Ville", "city_ascii": "Bell Ville", "country": "Argentina", "pop": "29605", "iso3": "ARG", "iso2": "AR", "lat": "-32.60003986", "lng": "-62.67995732"}, {"province": "C\u00f3rdoba", "city": "Villa Rumipal", "city_ascii": "Villa Rumipal", "country": "Argentina", "pop": "1269", "iso3": "ARG", "iso2": "AR", "lat": "-32.18332111", "lng": "-64.48328394"}, {"province": "C\u00f3rdoba", "city": "Villa Carlos Paz", "city_ascii": "Villa Carlos Paz", "country": "Argentina", "pop": "60256", "iso3": "ARG", "iso2": "AR", "lat": "-31.42000853", "lng": "-64.50000126"}, {"province": "Catamarca", "city": "Chumbicha", "city_ascii": "Chumbicha", "country": "Argentina", "pop": "2572", "iso3": "ARG", "iso2": "AR", "lat": "-28.86662433", "lng": "-66.23330632"}, {"province": "Catamarca", "city": "Tinogasta", "city_ascii": "Tinogasta", "country": "Argentina", "pop": "587", "iso3": "ARG", "iso2": "AR", "lat": "-28.06662148", "lng": "-67.56658411"}, {"province": "Jujuy", "city": "Abra Pampa", "city_ascii": "Abra Pampa", "country": "Argentina", "pop": "4480", "iso3": "ARG", "iso2": "AR", "lat": "-22.7166638", "lng": "-65.6999797"}, {"province": "Jujuy", "city": "Humahuaca", "city_ascii": "Humahuaca", "country": "Argentina", "pop": "11369", "iso3": "ARG", "iso2": "AR", "lat": "-23.19999347", "lng": "-65.34994938"}, {"province": "Jujuy", "city": "Susques", "city_ascii": "Susques", "country": "Argentina", "pop": "1093", "iso3": "ARG", "iso2": "AR", "lat": "-23.41667275", "lng": "-66.4833169"}, {"province": "La Rioja", "city": "Chepes", "city_ascii": "Chepes", "country": "Argentina", "pop": "6020", "iso3": "ARG", "iso2": "AR", "lat": "-31.34998696", "lng": "-66.5999506"}, {"province": "Salta", "city": "Yacuiba", "city_ascii": "Yacuiba", "country": "Argentina", "pop": "64811", "iso3": "ARG", "iso2": "AR", "lat": "-22.03003904", "lng": "-63.69999841"}, {"province": "Salta", "city": "Tartagal", "city_ascii": "Tartagal", "country": "Argentina", "pop": "59996.5", "iso3": "ARG", "iso2": "AR", "lat": "-22.55000731", "lng": "-63.81001754"}, {"province": "Salta", "city": "Joaquin V. Gonzalez", "city_ascii": "Joaquin V. Gonzalez", "country": "Argentina", "pop": "13376", "iso3": "ARG", "iso2": "AR", "lat": "-25.08334105", "lng": "-64.18335392"}, {"province": "Salta", "city": "General Guemes", "city_ascii": "General Guemes", "country": "Argentina", "pop": "19828", "iso3": "ARG", "iso2": "AR", "lat": "-24.6666223", "lng": "-65.04996769"}, {"province": "Tucum\u00e1n", "city": "Trancas", "city_ascii": "Trancas", "country": "Argentina", "pop": "1599", "iso3": "ARG", "iso2": "AR", "lat": "-26.21665688", "lng": "-65.28331262"}, {"province": "Chaco", "city": "Presidencia Roque Saenz Pena", "city_ascii": "Presidencia Roque Saenz Pena", "country": "Argentina", "pop": "75958", "iso3": "ARG", "iso2": "AR", "lat": "-26.7900069", "lng": "-60.45001591"}, {"province": "Chaco", "city": "Pampa del Infierno", "city_ascii": "Pampa del Infierno", "country": "Argentina", "pop": "2921", "iso3": "ARG", "iso2": "AR", "lat": "-26.51658689", "lng": "-61.16658716"}, {"province": "Chaco", "city": "Villa Angela", "city_ascii": "Villa Angela", "country": "Argentina", "pop": "30051", "iso3": "ARG", "iso2": "AR", "lat": "-27.58329181", "lng": "-60.7166663"}, {"province": "Formosa", "city": "Ingeniero Guillermo N. Juarez", "city_ascii": "Ingeniero Guillermo N. Juarez", "country": "Argentina", "pop": "6453", "iso3": "ARG", "iso2": "AR", "lat": "-23.90000242", "lng": "-61.84998214"}, {"province": "Formosa", "city": "Comandante Fontana", "city_ascii": "Comandante Fontana", "country": "Argentina", "pop": "4277", "iso3": "ARG", "iso2": "AR", "lat": "-25.33329995", "lng": "-59.68331852"}, {"province": "Formosa", "city": "Doctor Pedro P. Pena", "city_ascii": "Doctor Pedro P. Pena", "country": "Argentina", "pop": "6143", "iso3": "ARG", "iso2": "AR", "lat": "-22.47998574", "lng": "-62.29998051"}, {"province": "Corrientes", "city": "San Lorenzo", "city_ascii": "San Lorenzo", "country": "Argentina", "pop": "25833.5", "iso3": "ARG", "iso2": "AR", "lat": "-28.12000324", "lng": "-58.76998926"}, {"province": "Corrientes", "city": "Corrientes", "city_ascii": "Corrientes", "country": "Argentina", "pop": "339945", "iso3": "ARG", "iso2": "AR", "lat": "-27.48996417", "lng": "-58.80998682"}, {"province": "Entre R\u00edos", "city": "Concepcion del Uruguay", "city_ascii": "Concepcion del Uruguay", "country": "Argentina", "pop": "48275", "iso3": "ARG", "iso2": "AR", "lat": "-32.47999551", "lng": "-58.23999577"}, {"province": "Entre R\u00edos", "city": "Victoria", "city_ascii": "Victoria", "country": "Argentina", "pop": "20032.5", "iso3": "ARG", "iso2": "AR", "lat": "-32.61001341", "lng": "-60.17998071"}, {"province": "Entre R\u00edos", "city": "Gualeguay", "city_ascii": "Gualeguay", "country": "Argentina", "pop": "25913", "iso3": "ARG", "iso2": "AR", "lat": "-33.15003213", "lng": "-59.34000615"}, {"province": "Entre R\u00edos", "city": "Parana", "city_ascii": "Parana", "country": "Argentina", "pop": "226852", "iso3": "ARG", "iso2": "AR", "lat": "-31.73332273", "lng": "-60.53334416"}, {"province": "Santa Fe", "city": "Villa Constitucion", "city_ascii": "Villa Constitucion", "country": "Argentina", "pop": "30282.5", "iso3": "ARG", "iso2": "AR", "lat": "-33.23002724", "lng": "-60.35002202"}, {"province": "Santa Fe", "city": "Rafaela", "city_ascii": "Rafaela", "country": "Argentina", "pop": "69649", "iso3": "ARG", "iso2": "AR", "lat": "-31.25004474", "lng": "-61.49997766"}, {"province": "Misiones", "city": "Eldorado", "city_ascii": "Eldorado", "country": "Argentina", "pop": "17365", "iso3": "ARG", "iso2": "AR", "lat": "-26.20001707", "lng": "-54.59998539"}, {"province": "San Juan", "city": "Rodeo", "city_ascii": "Rodeo", "country": "Argentina", "pop": "701", "iso3": "ARG", "iso2": "AR", "lat": "-30.21558592", "lng": "-69.1399506"}, {"province": "Chubut", "city": "Las Plumas", "city_ascii": "Las Plumas", "country": "Argentina", "pop": "605", "iso3": "ARG", "iso2": "AR", "lat": "-43.41627887", "lng": "-67.24998845"}, {"province": "Chubut", "city": "Gastre", "city_ascii": "Gastre", "country": "Argentina", "pop": "557", "iso3": "ARG", "iso2": "AR", "lat": "-42.28296303", "lng": "-69.23330408"}, {"province": "Chubut", "city": "Telsen", "city_ascii": "Telsen", "country": "Argentina", "pop": "493", "iso3": "ARG", "iso2": "AR", "lat": "-42.39959674", "lng": "-66.95000676"}, {"province": "Mendoza", "city": "Malargue", "city_ascii": "Malargue", "country": "Argentina", "pop": "11847", "iso3": "ARG", "iso2": "AR", "lat": "-35.46611815", "lng": "-69.58330855"}, {"province": "Mendoza", "city": "Tunuyan", "city_ascii": "Tunuyan", "country": "Argentina", "pop": "22834", "iso3": "ARG", "iso2": "AR", "lat": "-33.56618244", "lng": "-69.01667647"}, {"province": "Mendoza", "city": "La Paz", "city_ascii": "La Paz", "country": "Argentina", "pop": "4400", "iso3": "ARG", "iso2": "AR", "lat": "-33.46613686", "lng": "-67.54999597"}, {"province": "Neuqu\u00e9n", "city": "Chos Malal", "city_ascii": "Chos Malal", "country": "Argentina", "pop": "8556", "iso3": "ARG", "iso2": "AR", "lat": "-37.38295205", "lng": "-70.26657434"}, {"province": "Neuqu\u00e9n", "city": "Las Lajas", "city_ascii": "Las Lajas", "country": "Argentina", "pop": "1218", "iso3": "ARG", "iso2": "AR", "lat": "-38.51626788", "lng": "-70.36659408"}, {"province": "Ciudad de Buenos Aires", "city": "Zarate", "city_ascii": "Zarate", "country": "Argentina", "pop": "86192", "iso3": "ARG", "iso2": "AR", "lat": "-34.08956134", "lng": "-59.04002446"}, {"province": "Ciudad de Buenos Aires", "city": "Carhue", "city_ascii": "Carhue", "country": "Argentina", "pop": "7190", "iso3": "ARG", "iso2": "AR", "lat": "-37.1828609", "lng": "-62.73331323"}, {"province": "Ciudad de Buenos Aires", "city": "Darregueira", "city_ascii": "Darregueira", "country": "Argentina", "pop": "3412", "iso3": "ARG", "iso2": "AR", "lat": "-37.69957355", "lng": "-63.16659428"}, {"province": "Ciudad de Buenos Aires", "city": "Juarez", "city_ascii": "Juarez", "country": "Argentina", "pop": "10609", "iso3": "ARG", "iso2": "AR", "lat": "-37.66551878", "lng": "-59.80002975"}, {"province": "Ciudad de Buenos Aires", "city": "Mar de Ajo", "city_ascii": "Mar de Ajo", "country": "Argentina", "pop": "13610", "iso3": "ARG", "iso2": "AR", "lat": "-36.71622272", "lng": "-56.67660283"}, {"province": "Ciudad de Buenos Aires", "city": "Lobos", "city_ascii": "Lobos", "country": "Argentina", "pop": "18278", "iso3": "ARG", "iso2": "AR", "lat": "-35.184895", "lng": "-59.09467228"}, {"province": "Ciudad de Buenos Aires", "city": "Chascomus", "city_ascii": "Chascomus", "country": "Argentina", "pop": "21054", "iso3": "ARG", "iso2": "AR", "lat": "-35.56621539", "lng": "-58.01662439"}, {"province": "Ciudad de Buenos Aires", "city": "Junin", "city_ascii": "Junin", "country": "Argentina", "pop": "66141.5", "iso3": "ARG", "iso2": "AR", "lat": "-34.58456989", "lng": "-60.95887374"}, {"province": "Ciudad de Buenos Aires", "city": "La Plata", "city_ascii": "La Plata", "country": "Argentina", "pop": "440388.5", "iso3": "ARG", "iso2": "AR", "lat": "-34.90961465", "lng": "-57.95996118"}, {"province": "Ciudad de Buenos Aires", "city": "Pergamino", "city_ascii": "Pergamino", "country": "Argentina", "pop": "71448", "iso3": "ARG", "iso2": "AR", "lat": "-33.89959878", "lng": "-60.56998275"}, {"province": "Ciudad de Buenos Aires", "city": "Lujan", "city_ascii": "Lujan", "country": "Argentina", "pop": "69744.5", "iso3": "ARG", "iso2": "AR", "lat": "-34.57960895", "lng": "-59.10999435"}, {"province": "Ciudad de Buenos Aires", "city": "Azul", "city_ascii": "Azul", "country": "Argentina", "pop": "43407.5", "iso3": "ARG", "iso2": "AR", "lat": "-36.7796297", "lng": "-59.86999964"}, {"province": "Ciudad de Buenos Aires", "city": "Villalonga", "city_ascii": "Villalonga", "country": "Argentina", "pop": "2838", "iso3": "ARG", "iso2": "AR", "lat": "-39.88285114", "lng": "-62.58332239"}, {"province": "La Pampa", "city": "Victorica", "city_ascii": "Victorica", "country": "Argentina", "pop": "4458", "iso3": "ARG", "iso2": "AR", "lat": "-36.21625324", "lng": "-65.45002079"}, {"province": "La Pampa", "city": "General Pico", "city_ascii": "General Pico", "country": "Argentina", "pop": "46483", "iso3": "ARG", "iso2": "AR", "lat": "-35.65959471", "lng": "-63.77001998"}, {"province": "R\u00edo Negro", "city": "San Antonio Oeste", "city_ascii": "San Antonio Oeste", "country": "Argentina", "pop": "8492", "iso3": "ARG", "iso2": "AR", "lat": "-40.73287677", "lng": "-64.93328231"}, {"province": "R\u00edo Negro", "city": "Sierra Colorado", "city_ascii": "Sierra Colorado", "country": "Argentina", "pop": "1522", "iso3": "ARG", "iso2": "AR", "lat": "-40.58286009", "lng": "-67.79998071"}, {"province": "San Luis", "city": "Mercedes", "city_ascii": "Mercedes", "country": "Argentina", "pop": "49345", "iso3": "ARG", "iso2": "AR", "lat": "-33.68958576", "lng": "-65.4699679"}, {"province": "C\u00f3rdoba", "city": "Rio Tercero", "city_ascii": "Rio Tercero", "country": "Argentina", "pop": "38049.5", "iso3": "ARG", "iso2": "AR", "lat": "-32.1796004", "lng": "-64.12002446"}, {"province": "Catamarca", "city": "Belen", "city_ascii": "Belen", "country": "Argentina", "pop": "11359", "iso3": "ARG", "iso2": "AR", "lat": "-27.64959267", "lng": "-67.03328333"}, {"province": "Jujuy", "city": "Rinconada", "city_ascii": "Rinconada", "country": "Argentina", "pop": "6209.5", "iso3": "ARG", "iso2": "AR", "lat": "-22.43290851", "lng": "-66.16659204"}, {"province": "Jujuy", "city": "San Pedro", "city_ascii": "San Pedro", "country": "Argentina", "pop": "55249", "iso3": "ARG", "iso2": "AR", "lat": "-24.21962116", "lng": "-64.87000452"}, {"province": "Jujuy", "city": "Libertador General San Martin", "city_ascii": "Libertador General San Martin", "country": "Argentina", "pop": "47559", "iso3": "ARG", "iso2": "AR", "lat": "-23.81954222", "lng": "-64.78998356"}, {"province": "La Rioja", "city": "Chilecito", "city_ascii": "Chilecito", "country": "Argentina", "pop": "20343", "iso3": "ARG", "iso2": "AR", "lat": "-29.16552081", "lng": "-67.49999903"}, {"province": "La Rioja", "city": "Chamical", "city_ascii": "Chamical", "country": "Argentina", "pop": "8989", "iso3": "ARG", "iso2": "AR", "lat": "-30.34958291", "lng": "-66.3166604"}, {"province": "Salta", "city": "Los Blancos", "city_ascii": "Los Blancos", "country": "Argentina", "pop": "1145", "iso3": "ARG", "iso2": "AR", "lat": "-23.59960732", "lng": "-62.60003972"}, {"province": "Salta", "city": "Cafayate", "city_ascii": "Cafayate", "country": "Argentina", "pop": "9478", "iso3": "ARG", "iso2": "AR", "lat": "-26.08291828", "lng": "-65.96660425"}, {"province": "Salta", "city": "Cerrillos", "city_ascii": "Cerrillos", "country": "Argentina", "pop": "11498", "iso3": "ARG", "iso2": "AR", "lat": "-24.89963133", "lng": "-65.48330042"}, {"province": "Salta", "city": "San Antonio de los Cobres", "city_ascii": "San Antonio de los Cobres", "country": "Argentina", "pop": "4000", "iso3": "ARG", "iso2": "AR", "lat": "-24.18293089", "lng": "-66.35001754"}, {"province": "Santiago del Estero", "city": "Anatuya", "city_ascii": "Anatuya", "country": "Argentina", "pop": "14133", "iso3": "ARG", "iso2": "AR", "lat": "-28.46613198", "lng": "-62.83330713"}, {"province": "Santiago del Estero", "city": "Frias", "city_ascii": "Frias", "country": "Argentina", "pop": "13594", "iso3": "ARG", "iso2": "AR", "lat": "-28.64958331", "lng": "-65.14998743"}, {"province": "Santiago del Estero", "city": "Monte Quemado", "city_ascii": "Monte Quemado", "country": "Argentina", "pop": "11387", "iso3": "ARG", "iso2": "AR", "lat": "-25.79962807", "lng": "-62.86658675"}, {"province": "Chaco", "city": "Juan Jose Castelli", "city_ascii": "Juan Jose Castelli", "country": "Argentina", "pop": "9421", "iso3": "ARG", "iso2": "AR", "lat": "-25.9495414", "lng": "-60.61664657"}, {"province": "Chaco", "city": "Charata", "city_ascii": "Charata", "country": "Argentina", "pop": "18297", "iso3": "ARG", "iso2": "AR", "lat": "-27.21628579", "lng": "-61.19999597"}, {"province": "Formosa", "city": "Las Lomitas", "city_ascii": "Las Lomitas", "country": "Argentina", "pop": "7683", "iso3": "ARG", "iso2": "AR", "lat": "-24.69959186", "lng": "-60.60000676"}, {"province": "Corrientes", "city": "Mercedes", "city_ascii": "Mercedes", "country": "Argentina", "pop": "22872.5", "iso3": "ARG", "iso2": "AR", "lat": "-29.1795768", "lng": "-58.0799797"}, {"province": "Entre R\u00edos", "city": "Concordia", "city_ascii": "Concordia", "country": "Argentina", "pop": "132760.5", "iso3": "ARG", "iso2": "AR", "lat": "-31.38957111", "lng": "-58.02998275"}, {"province": "Santa Fe", "city": "Sunchales", "city_ascii": "Sunchales", "country": "Argentina", "pop": "12655", "iso3": "ARG", "iso2": "AR", "lat": "-30.93290648", "lng": "-61.56661442"}, {"province": "Santa Fe", "city": "San Justo", "city_ascii": "San Justo", "country": "Argentina", "pop": "9607", "iso3": "ARG", "iso2": "AR", "lat": "-30.78288979", "lng": "-60.58328943"}, {"province": "Santa Fe", "city": "Vera", "city_ascii": "Vera", "country": "Argentina", "pop": "9979", "iso3": "ARG", "iso2": "AR", "lat": "-29.4661743", "lng": "-60.21659347"}, {"province": "Santa Fe", "city": "Reconquista", "city_ascii": "Reconquista", "country": "Argentina", "pop": "86640.5", "iso3": "ARG", "iso2": "AR", "lat": "-29.13952757", "lng": "-59.65001306"}, {"province": "Santa Fe", "city": "Venado Tuerto", "city_ascii": "Venado Tuerto", "country": "Argentina", "pop": "52079", "iso3": "ARG", "iso2": "AR", "lat": "-33.74958209", "lng": "-61.97000065"}, {"province": "Chubut", "city": "Esquel", "city_ascii": "Esquel", "country": "Argentina", "pop": "20048", "iso3": "ARG", "iso2": "AR", "lat": "-42.90003131", "lng": "-71.31661361"}, {"province": "Neuqu\u00e9n", "city": "Zapala", "city_ascii": "Zapala", "country": "Argentina", "pop": "19152", "iso3": "ARG", "iso2": "AR", "lat": "-38.90001707", "lng": "-70.06666406"}, {"province": "Ciudad de Buenos Aires", "city": "Olavarria", "city_ascii": "Olavarria", "country": "Argentina", "pop": "65059", "iso3": "ARG", "iso2": "AR", "lat": "-36.90003579", "lng": "-60.3299974"}, {"province": "Ciudad de Buenos Aires", "city": "Tandil", "city_ascii": "Tandil", "country": "Argentina", "pop": "84799.5", "iso3": "ARG", "iso2": "AR", "lat": "-37.32001015", "lng": "-59.15004358"}, {"province": "Ciudad de Buenos Aires", "city": "Viedma", "city_ascii": "Viedma", "country": "Argentina", "pop": "54031", "iso3": "ARG", "iso2": "AR", "lat": "-40.79995278", "lng": "-63.0000153"}, {"province": "San Luis", "city": "San Luis", "city_ascii": "San Luis", "country": "Argentina", "pop": "308146", "iso3": "ARG", "iso2": "AR", "lat": "-33.29999713", "lng": "-66.35001754"}, {"province": "C\u00f3rdoba", "city": "Rio Cuarto", "city_ascii": "Rio Cuarto", "country": "Argentina", "pop": "135959.5", "iso3": "ARG", "iso2": "AR", "lat": "-33.13003335", "lng": "-64.34998458"}, {"province": "Jujuy", "city": "San Salvador de Jujuy", "city_ascii": "San Salvador de Jujuy", "country": "Argentina", "pop": "258739", "iso3": "ARG", "iso2": "AR", "lat": "-24.1833443", "lng": "-65.30002995"}, {"province": "Salta", "city": "San Ramon de la Nueva Oran", "city_ascii": "San Ramon de la Nueva Oran", "country": "Argentina", "pop": "69461.5", "iso3": "ARG", "iso2": "AR", "lat": "-23.13999713", "lng": "-64.32001225"}, {"province": "Corrientes", "city": "Goya", "city_ascii": "Goya", "country": "Argentina", "pop": "71274.5", "iso3": "ARG", "iso2": "AR", "lat": "-29.13999266", "lng": "-59.26998458"}, {"province": "Santa Cruz", "city": "Puerto San Julian", "city_ascii": "Puerto San Julian", "country": "Argentina", "pop": "2347", "iso3": "ARG", "iso2": "AR", "lat": "-49.30000242", "lng": "-67.71665247"}, {"province": "Santa Cruz", "city": "Perito Moreno", "city_ascii": "Perito Moreno", "country": "Argentina", "pop": "3766", "iso3": "ARG", "iso2": "AR", "lat": "-46.60001219", "lng": "-70.93335535"}, {"province": "Tierra del Fuego", "city": "Rio Grande", "city_ascii": "Rio Grande", "country": "Argentina", "pop": "31095", "iso3": "ARG", "iso2": "AR", "lat": "-53.79144552", "lng": "-67.6989952"}, {"province": "Tierra del Fuego", "city": "Ushuaia", "city_ascii": "Ushuaia", "country": "Argentina", "pop": "50483.5", "iso3": "ARG", "iso2": "AR", "lat": "-54.79000324", "lng": "-68.31000126"}, {"province": "Chubut", "city": "Sarmiento", "city_ascii": "Sarmiento", "country": "Argentina", "pop": "5185", "iso3": "ARG", "iso2": "AR", "lat": "-45.60002155", "lng": "-69.08331323"}, {"province": "Mendoza", "city": "San Rafael", "city_ascii": "San Rafael", "country": "Argentina", "pop": "79523.5", "iso3": "ARG", "iso2": "AR", "lat": "-34.60002114", "lng": "-68.33333317"}, {"province": "Ciudad de Buenos Aires", "city": "Necochea", "city_ascii": "Necochea", "country": "Argentina", "pop": "70562", "iso3": "ARG", "iso2": "AR", "lat": "-38.55998615", "lng": "-58.74999048"}, {"province": "La Pampa", "city": "Rio Colorado", "city_ascii": "Rio Colorado", "country": "Argentina", "pop": "11499", "iso3": "ARG", "iso2": "AR", "lat": "-38.96657632", "lng": "-64.08328251"}, {"province": "Catamarca", "city": "Catamarca", "city_ascii": "Catamarca", "country": "Argentina", "pop": "162586", "iso3": "ARG", "iso2": "AR", "lat": "-28.47000771", "lng": "-65.78000065"}, {"province": "La Rioja", "city": "La Rioja", "city_ascii": "La Rioja", "country": "Argentina", "pop": "147130", "iso3": "ARG", "iso2": "AR", "lat": "-29.40995034", "lng": "-66.84996118"}, {"province": "Santiago del Estero", "city": "Santiago del Estero", "city_ascii": "Santiago del Estero", "country": "Argentina", "pop": "317549.5", "iso3": "ARG", "iso2": "AR", "lat": "-27.78333128", "lng": "-64.26665633"}, {"province": "Chaco", "city": "Resistencia", "city_ascii": "Resistencia", "country": "Argentina", "pop": "368455.5", "iso3": "ARG", "iso2": "AR", "lat": "-27.45999184", "lng": "-58.99002751"}, {"province": "Entre R\u00edos", "city": "Gualeguaychu", "city_ascii": "Gualeguaychu", "country": "Argentina", "pop": "55860.5", "iso3": "ARG", "iso2": "AR", "lat": "-33.02001422", "lng": "-58.52000452"}, {"province": "Santa Cruz", "city": "El Calafate", "city_ascii": "El Calafate", "country": "Argentina", "pop": "6329", "iso3": "ARG", "iso2": "AR", "lat": "-50.33332436", "lng": "-72.30001612"}, {"province": "San Juan", "city": "San Juan", "city_ascii": "San Juan", "country": "Argentina", "pop": "433892", "iso3": "ARG", "iso2": "AR", "lat": "-31.55002643", "lng": "-68.51998845"}, {"province": "Chubut", "city": "Rawson", "city_ascii": "Rawson", "country": "Argentina", "pop": "25062.5", "iso3": "ARG", "iso2": "AR", "lat": "-43.3000069", "lng": "-65.09999048"}, {"province": "Neuqu\u00e9n", "city": "Neuquen", "city_ascii": "Neuquen", "country": "Argentina", "pop": "213823.5", "iso3": "ARG", "iso2": "AR", "lat": "-38.95003986", "lng": "-68.05999068"}, {"province": "La Pampa", "city": "Santa Rosa", "city_ascii": "Santa Rosa", "country": "Argentina", "pop": "97693.5", "iso3": "ARG", "iso2": "AR", "lat": "-36.6200012", "lng": "-64.29998763"}, {"province": "R\u00edo Negro", "city": "San Carlos de Bariloche", "city_ascii": "San Carlos de Bariloche", "country": "Argentina", "pop": "91953", "iso3": "ARG", "iso2": "AR", "lat": "-41.14995726", "lng": "-71.29999964"}, {"province": "Salta", "city": "Salta", "city_ascii": "Salta", "country": "Argentina", "pop": "484646", "iso3": "ARG", "iso2": "AR", "lat": "-24.78335936", "lng": "-65.41663782"}, {"province": "Tucum\u00e1n", "city": "Tucum\u00e1n", "city_ascii": "San Miguel de Tucuman", "country": "Argentina", "pop": "678803.5", "iso3": "ARG", "iso2": "AR", "lat": "-26.81600014", "lng": "-65.21662419"}, {"province": "Formosa", "city": "Formosa", "city_ascii": "Formosa", "country": "Argentina", "pop": "202272", "iso3": "ARG", "iso2": "AR", "lat": "-26.17283527", "lng": "-58.1828158"}, {"province": "Santa Fe", "city": "Santa Fe", "city_ascii": "Santa Fe", "country": "Argentina", "pop": "393504", "iso3": "ARG", "iso2": "AR", "lat": "-31.62387205", "lng": "-60.69000126"}, {"province": "Santa Fe", "city": "Rosario", "city_ascii": "Rosario", "country": "Argentina", "pop": "1094784.5", "iso3": "ARG", "iso2": "AR", "lat": "-32.95112954", "lng": "-60.66630762"}, {"province": "Santa Cruz", "city": "Puerto Deseado", "city_ascii": "Puerto Deseado", "country": "Argentina", "pop": "3305", "iso3": "ARG", "iso2": "AR", "lat": "-47.75001951", "lng": "-65.89996749"}, {"province": "Santa Cruz", "city": "Rio Gallegos", "city_ascii": "Rio Gallegos", "country": "Argentina", "pop": "77183", "iso3": "ARG", "iso2": "AR", "lat": "-51.63329669", "lng": "-69.21658675"}, {"province": "Chubut", "city": "Comodoro Rivadavia", "city_ascii": "Comodoro Rivadavia", "country": "Argentina", "pop": "123291", "iso3": "ARG", "iso2": "AR", "lat": "-45.87003091", "lng": "-67.49999903"}, {"province": "Mendoza", "city": "Mendoza", "city_ascii": "Mendoza", "country": "Argentina", "pop": "827815", "iso3": "ARG", "iso2": "AR", "lat": "-32.88333006", "lng": "-68.81661117"}, {"province": "Ciudad de Buenos Aires", "city": "Bahia Blanca", "city_ascii": "Bahia Blanca", "country": "Argentina", "pop": "279041", "iso3": "ARG", "iso2": "AR", "lat": "-38.74002684", "lng": "-62.2650214"}, {"province": "Ciudad de Buenos Aires", "city": "Mar del Plata", "city_ascii": "Mar del Plata", "country": "Argentina", "pop": "554916", "iso3": "ARG", "iso2": "AR", "lat": "-38.00002033", "lng": "-57.57998438"}, {"province": "C\u00f3rdoba", "city": "C\u00f3rdoba", "city_ascii": "Cordoba", "country": "Argentina", "pop": "1374467.5", "iso3": "ARG", "iso2": "AR", "lat": "-31.39995807", "lng": "-64.18229456"}, {"province": "Misiones", "city": "Posadas", "city_ascii": "Posadas", "country": "Argentina", "pop": "334589.5", "iso3": "ARG", "iso2": "AR", "lat": "-27.3578321", "lng": "-55.88510735"}, {"province": "Ciudad de Buenos Aires", "city": "Buenos Aires", "city_ascii": "Buenos Aires", "country": "Argentina", "pop": "11862073", "iso3": "ARG", "iso2": "AR", "lat": "-34.60250161", "lng": "-58.39753137"}, {"province": "Aragatsotn", "city": "Ashtarak", "city_ascii": "Ashtarak", "country": "Armenia", "pop": "18779", "iso3": "ARM", "iso2": "AM", "lat": "40.3016667", "lng": "44.3591667"}, {"province": "Tavush", "city": "Ijevan", "city_ascii": "Ijevan", "country": "Armenia", "pop": "14737", "iso3": "ARM", "iso2": "AM", "lat": "40.8755556", "lng": "45.1491667"}, {"province": "Ararat", "city": "Artashat", "city_ascii": "Artashat", "country": "Armenia", "pop": "20562", "iso3": "ARM", "iso2": "AM", "lat": "39.9538889", "lng": "44.5505556"}, {"province": "Gegharkunik", "city": "Gavarr", "city_ascii": "Gavarr", "country": "Armenia", "pop": "21680", "iso3": "ARM", "iso2": "AM", "lat": "40.3588889", "lng": "45.1266667"}, {"province": "Vayots Dzor", "city": "Yeghegnadzor", "city_ascii": "Yeghegnadzor", "country": "Armenia", "pop": "8200", "iso3": "ARM", "iso2": "AM", "lat": "39.7611111", "lng": "45.3333333"}, {"province": "Shirak", "city": "Gyumri", "city_ascii": "Gyumri", "country": "Armenia", "pop": "140277.5", "iso3": "ARM", "iso2": "AM", "lat": "40.78943402", "lng": "43.84749385"}, {"province": "Lori", "city": "Vanadzor", "city_ascii": "Vanadzor", "country": "Armenia", "pop": "89295", "iso3": "ARM", "iso2": "AM", "lat": "40.81276593", "lng": "44.48828162"}, {"province": "Erevan", "city": "Yerevan", "city_ascii": "Yerevan", "country": "Armenia", "pop": "1097742.5", "iso3": "ARM", "iso2": "AM", "lat": "40.18115074", "lng": "44.51355139"}, {"province": "", "city": "Oranjestad", "city_ascii": "Oranjestad", "country": "Aruba", "pop": "50887.5", "iso3": "ABW", "iso2": "AW", "lat": "12.53038373", "lng": "-70.02899195"}, {"province": "New South Wales", "city": "Central Coast", "city_ascii": "Central Coast", "country": "Australia", "pop": "3026", "iso3": "AUS", "iso2": "AU", "lat": "-33.42004148", "lng": "151.3000048"}, {"province": "Queensland", "city": "Sunshine Coast", "city_ascii": "Sunshine Coast", "country": "Australia", "pop": "57215.5", "iso3": "AUS", "iso2": "AU", "lat": "-26.67998777", "lng": "153.0500272"}, {"province": "New South Wales", "city": "Bourke", "city_ascii": "Bourke", "country": "Australia", "pop": "2475", "iso3": "AUS", "iso2": "AU", "lat": "-30.1", "lng": "145.9333333"}, {"province": "Northern Territory", "city": "Pine Creek", "city_ascii": "Pine Creek", "country": "Australia", "pop": "505", "iso3": "AUS", "iso2": "AU", "lat": "-13.81617348", "lng": "131.816698"}, {"province": "Northern Territory", "city": "Adelaide River", "city_ascii": "Adelaide River", "country": "Australia", "pop": "237", "iso3": "AUS", "iso2": "AU", "lat": "-13.2495414", "lng": "131.0999975"}, {"province": "Northern Territory", "city": "McMinns Lagoon", "city_ascii": "McMinns Lagoon", "country": "Australia", "pop": "5025", "iso3": "AUS", "iso2": "AU", "lat": "-12.53289264", "lng": "131.0500264"}, {"province": "Northern Territory", "city": "Newcastle Waters", "city_ascii": "Newcastle Waters", "country": "Australia", "pop": "10", "iso3": "AUS", "iso2": "AU", "lat": "-17.55279295", "lng": "133.4672432"}, {"province": "Western Australia", "city": "Ravensthorpe", "city_ascii": "Ravensthorpe", "country": "Australia", "pop": "639", "iso3": "AUS", "iso2": "AU", "lat": "-33.58287392", "lng": "120.0333345"}, {"province": "Western Australia", "city": "Wagin", "city_ascii": "Wagin", "country": "Australia", "pop": "1037.5", "iso3": "AUS", "iso2": "AU", "lat": "-33.29958372", "lng": "117.3499841"}, {"province": "Western Australia", "city": "Roebourne", "city_ascii": "Roebourne", "country": "Australia", "pop": "11281.5", "iso3": "AUS", "iso2": "AU", "lat": "-20.7829317", "lng": "117.1333048"}, {"province": "Western Australia", "city": "Pannawonica", "city_ascii": "Pannawonica", "country": "Australia", "pop": "686", "iso3": "AUS", "iso2": "AU", "lat": "-21.63657469", "lng": "116.3250337"}, {"province": "Western Australia", "city": "Tom Price", "city_ascii": "Tom Price", "country": "Australia", "pop": "1822", "iso3": "AUS", "iso2": "AU", "lat": "-22.69346108", "lng": "117.7930578"}, {"province": "Western Australia", "city": "Kalbarri", "city_ascii": "Kalbarri", "country": "Australia", "pop": "1537", "iso3": "AUS", "iso2": "AU", "lat": "-27.66618081", "lng": "114.1666642"}, {"province": "Western Australia", "city": "Mount Magnet", "city_ascii": "Mount Magnet", "country": "Australia", "pop": "424", "iso3": "AUS", "iso2": "AU", "lat": "-28.06620807", "lng": "117.8166739"}, {"province": "Western Australia", "city": "Morawa", "city_ascii": "Morawa", "country": "Australia", "pop": "259", "iso3": "AUS", "iso2": "AU", "lat": "-29.21626707", "lng": "116.0000406"}, {"province": "Western Australia", "city": "Port Denison", "city_ascii": "Port Denison", "country": "Australia", "pop": "1213", "iso3": "AUS", "iso2": "AU", "lat": "-29.28282632", "lng": "114.9166442"}, {"province": "Western Australia", "city": "Merredin", "city_ascii": "Merredin", "country": "Australia", "pop": "2054", "iso3": "AUS", "iso2": "AU", "lat": "-31.48284707", "lng": "118.2666723"}, {"province": "Western Australia", "city": "Mount Barker", "city_ascii": "Mount Barker", "country": "Australia", "pop": "1771.5", "iso3": "AUS", "iso2": "AU", "lat": "-34.632784", "lng": "117.6666056"}, {"province": "Western Australia", "city": "Katanning", "city_ascii": "Katanning", "country": "Australia", "pop": "3140", "iso3": "AUS", "iso2": "AU", "lat": "-33.69955931", "lng": "117.5500752"}, {"province": "Western Australia", "city": "Narrogin", "city_ascii": "Narrogin", "country": "Australia", "pop": "3995", "iso3": "AUS", "iso2": "AU", "lat": "-32.93288776", "lng": "117.1666361"}, {"province": "Western Australia", "city": "Gingin", "city_ascii": "Gingin", "country": "Australia", "pop": "1446", "iso3": "AUS", "iso2": "AU", "lat": "-31.34957355", "lng": "115.9000468"}, {"province": "Western Australia", "city": "Bunbury", "city_ascii": "Bunbury", "country": "Australia", "pop": "26683.5", "iso3": "AUS", "iso2": "AU", "lat": "-33.34428384", "lng": "115.6502429"}, {"province": "Western Australia", "city": "Kwinana", "city_ascii": "Kwinana", "country": "Australia", "pop": "18817.5", "iso3": "AUS", "iso2": "AU", "lat": "-32.23939004", "lng": "115.7702356"}, {"province": "Western Australia", "city": "Southern Cross", "city_ascii": "Southern Cross", "country": "Australia", "pop": "187", "iso3": "AUS", "iso2": "AU", "lat": "-31.216145", "lng": "119.3166857"}, {"province": "Northern Territory", "city": "Kaltukatjara", "city_ascii": "Kaltukatjara", "country": "Australia", "pop": "355", "iso3": "AUS", "iso2": "AU", "lat": "-25.78841429", "lng": "128.9973352"}, {"province": "Australian Capital Territory", "city": "Queanbeyan", "city_ascii": "Queanbeyan", "country": "Australia", "pop": "32408", "iso3": "AUS", "iso2": "AU", "lat": "-35.3546004", "lng": "149.2113468"}, {"province": "New South Wales", "city": "Tweed Heads", "city_ascii": "Tweed Heads", "country": "Australia", "pop": "33065", "iso3": "AUS", "iso2": "AU", "lat": "-28.1825834", "lng": "153.5466377"}, {"province": "New South Wales", "city": "Ivanhoe", "city_ascii": "Ivanhoe", "country": "Australia", "pop": "265", "iso3": "AUS", "iso2": "AU", "lat": "-32.89960814", "lng": "144.3000187"}, {"province": "New South Wales", "city": "Wilcannia", "city_ascii": "Wilcannia", "country": "Australia", "pop": "442", "iso3": "AUS", "iso2": "AU", "lat": "-31.56620115", "lng": "143.3833304"}, {"province": "New South Wales", "city": "Merimbula", "city_ascii": "Merimbula", "country": "Australia", "pop": "3607.5", "iso3": "AUS", "iso2": "AU", "lat": "-36.89962238", "lng": "149.9000386"}, {"province": "New South Wales", "city": "Echuca", "city_ascii": "Echuca", "country": "Australia", "pop": "13460", "iso3": "AUS", "iso2": "AU", "lat": "-36.12959186", "lng": "144.750017"}, {"province": "New South Wales", "city": "Deniliquin", "city_ascii": "Deniliquin", "country": "Australia", "pop": "6019.5", "iso3": "AUS", "iso2": "AU", "lat": "-35.5295768", "lng": "144.9500048"}, {"province": "New South Wales", "city": "Nowra", "city_ascii": "Nowra", "country": "Australia", "pop": "61036.5", "iso3": "AUS", "iso2": "AU", "lat": "-34.88284625", "lng": "150.6000476"}, {"province": "New South Wales", "city": "Ulladulla", "city_ascii": "Ulladulla", "country": "Australia", "pop": "6811", "iso3": "AUS", "iso2": "AU", "lat": "-35.34953611", "lng": "150.4700297"}, {"province": "New South Wales", "city": "Batemans Bay", "city_ascii": "Batemans Bay", "country": "Australia", "pop": "5604", "iso3": "AUS", "iso2": "AU", "lat": "-35.68961871", "lng": "150.2073067"}, {"province": "New South Wales", "city": "Cooma", "city_ascii": "Cooma", "country": "Australia", "pop": "5661.5", "iso3": "AUS", "iso2": "AU", "lat": "-36.23955931", "lng": "149.1200345"}, {"province": "New South Wales", "city": "Tumut", "city_ascii": "Tumut", "country": "Australia", "pop": "4873", "iso3": "AUS", "iso2": "AU", "lat": "-35.30959023", "lng": "148.2200378"}, {"province": "New South Wales", "city": "Leeton", "city_ascii": "Leeton", "country": "Australia", "pop": "6277", "iso3": "AUS", "iso2": "AU", "lat": "-34.54493406", "lng": "146.3973067"}, {"province": "New South Wales", "city": "Young", "city_ascii": "Young", "country": "Australia", "pop": "6422", "iso3": "AUS", "iso2": "AU", "lat": "-34.30959959", "lng": "148.2900077"}, {"province": "New South Wales", "city": "Cowra", "city_ascii": "Cowra", "country": "Australia", "pop": "5729.5", "iso3": "AUS", "iso2": "AU", "lat": "-33.82962889", "lng": "148.6800097"}, {"province": "New South Wales", "city": "Forbes", "city_ascii": "Forbes", "country": "Australia", "pop": "4076.5", "iso3": "AUS", "iso2": "AU", "lat": "-33.38960407", "lng": "148.0199983"}, {"province": "New South Wales", "city": "Goulburn", "city_ascii": "Goulburn", "country": "Australia", "pop": "16444", "iso3": "AUS", "iso2": "AU", "lat": "-34.74957273", "lng": "149.7101794"}, {"province": "New South Wales", "city": "Kiama", "city_ascii": "Kiama", "country": "Australia", "pop": "10379", "iso3": "AUS", "iso2": "AU", "lat": "-34.70957518", "lng": "150.8400329"}, {"province": "New South Wales", "city": "Katoomba", "city_ascii": "Katoomba", "country": "Australia", "pop": "20334.5", "iso3": "AUS", "iso2": "AU", "lat": "-33.70694904", "lng": "150.320013"}, {"province": "New South Wales", "city": "Richmond", "city_ascii": "Richmond", "country": "Australia", "pop": "9720", "iso3": "AUS", "iso2": "AU", "lat": "-33.59951373", "lng": "150.7399873"}, {"province": "New South Wales", "city": "Lithgow", "city_ascii": "Lithgow", "country": "Australia", "pop": "10338", "iso3": "AUS", "iso2": "AU", "lat": "-33.49610919", "lng": "150.152788"}, {"province": "New South Wales", "city": "Parkes", "city_ascii": "Parkes", "country": "Australia", "pop": "7160", "iso3": "AUS", "iso2": "AU", "lat": "-33.12956826", "lng": "148.170015"}, {"province": "New South Wales", "city": "Bathurst", "city_ascii": "Bathurst", "country": "Australia", "pop": "6111", "iso3": "AUS", "iso2": "AU", "lat": "-33.41962807", "lng": "149.5700329"}, {"province": "New South Wales", "city": "Maitland", "city_ascii": "Maitland", "country": "Australia", "pop": "10026.5", "iso3": "AUS", "iso2": "AU", "lat": "-32.72096271", "lng": "151.555028"}, {"province": "New South Wales", "city": "Singleton", "city_ascii": "Singleton", "country": "Australia", "pop": "8340.5", "iso3": "AUS", "iso2": "AU", "lat": "-32.56949909", "lng": "151.1600134"}, {"province": "New South Wales", "city": "Mudgee", "city_ascii": "Mudgee", "country": "Australia", "pop": "5391", "iso3": "AUS", "iso2": "AU", "lat": "-32.58960122", "lng": "149.5801098"}, {"province": "New South Wales", "city": "Muswellbrook", "city_ascii": "Muswellbrook", "country": "Australia", "pop": "8171", "iso3": "AUS", "iso2": "AU", "lat": "-32.26956907", "lng": "150.890004"}, {"province": "New South Wales", "city": "Taree", "city_ascii": "Taree", "country": "Australia", "pop": "30131.5", "iso3": "AUS", "iso2": "AU", "lat": "-31.89760211", "lng": "152.4618461"}, {"province": "New South Wales", "city": "Kempsey", "city_ascii": "Kempsey", "country": "Australia", "pop": "10681", "iso3": "AUS", "iso2": "AU", "lat": "-31.08736733", "lng": "152.8220308"}, {"province": "New South Wales", "city": "Gunnedah", "city_ascii": "Gunnedah", "country": "Australia", "pop": "6204", "iso3": "AUS", "iso2": "AU", "lat": "-30.9870117", "lng": "150.2622904"}, {"province": "New South Wales", "city": "Coffs Harbour", "city_ascii": "Coffs Harbour", "country": "Australia", "pop": "48961", "iso3": "AUS", "iso2": "AU", "lat": "-30.3070532", "lng": "153.1122973"}, {"province": "New South Wales", "city": "Narrabri", "city_ascii": "Narrabri", "country": "Australia", "pop": "6105.5", "iso3": "AUS", "iso2": "AU", "lat": "-30.33190957", "lng": "149.7874357"}, {"province": "New South Wales", "city": "Inverell", "city_ascii": "Inverell", "country": "Australia", "pop": "6845.5", "iso3": "AUS", "iso2": "AU", "lat": "-29.7667761", "lng": "151.1125744"}, {"province": "New South Wales", "city": "Yamba", "city_ascii": "Yamba", "country": "Australia", "pop": "1806", "iso3": "AUS", "iso2": "AU", "lat": "-29.42299136", "lng": "153.353312"}, {"province": "New South Wales", "city": "Ballina", "city_ascii": "Ballina", "country": "Australia", "pop": "13997.5", "iso3": "AUS", "iso2": "AU", "lat": "-28.86135333", "lng": "153.5679801"}, {"province": "New South Wales", "city": "Wagga Wagga", "city_ascii": "Wagga Wagga", "country": "Australia", "pop": "45549", "iso3": "AUS", "iso2": "AU", "lat": "-35.12215981", "lng": "147.3399882"}, {"province": "New South Wales", "city": "Scone", "city_ascii": "Scone", "country": "Australia", "pop": "4624", "iso3": "AUS", "iso2": "AU", "lat": "-32.07960651", "lng": "150.8501098"}, {"province": "New South Wales", "city": "Byron Bay", "city_ascii": "Byron Bay", "country": "Australia", "pop": "5244.5", "iso3": "AUS", "iso2": "AU", "lat": "-28.65650796", "lng": "153.6128869"}, {"province": "South Australia", "city": "Berri", "city_ascii": "Berri", "country": "Australia", "pop": "4523", "iso3": "AUS", "iso2": "AU", "lat": "-34.28293455", "lng": "140.6000378"}, {"province": "South Australia", "city": "Peterborough", "city_ascii": "Peterborough", "country": "Australia", "pop": "1351", "iso3": "AUS", "iso2": "AU", "lat": "-32.96616738", "lng": "138.8333239"}, {"province": "South Australia", "city": "Wallaroo", "city_ascii": "Wallaroo", "country": "Australia", "pop": "2442", "iso3": "AUS", "iso2": "AU", "lat": "-33.9328784", "lng": "137.6332938"}, {"province": "South Australia", "city": "Clare", "city_ascii": "Clare", "country": "Australia", "pop": "2729", "iso3": "AUS", "iso2": "AU", "lat": "-33.8328845", "lng": "138.6000048"}, {"province": "South Australia", "city": "Meningie", "city_ascii": "Meningie", "country": "Australia", "pop": "850", "iso3": "AUS", "iso2": "AU", "lat": "-35.69954059", "lng": "139.3333451"}, {"province": "South Australia", "city": "Kingston South East", "city_ascii": "Kingston South East", "country": "Australia", "pop": "206", "iso3": "AUS", "iso2": "AU", "lat": "-36.83280475", "lng": "139.8500577"}, {"province": "South Australia", "city": "Bordertown", "city_ascii": "Bordertown", "country": "Australia", "pop": "1976", "iso3": "AUS", "iso2": "AU", "lat": "-36.31619546", "lng": "140.7666426"}, {"province": "South Australia", "city": "Penola", "city_ascii": "Penola", "country": "Australia", "pop": "1513", "iso3": "AUS", "iso2": "AU", "lat": "-37.38295205", "lng": "140.8166654"}, {"province": "South Australia", "city": "Kingoonya", "city_ascii": "Kingoonya", "country": "Australia", "pop": "50", "iso3": "AUS", "iso2": "AU", "lat": "-30.89957518", "lng": "135.2999996"}, {"province": "South Australia", "city": "Kimba", "city_ascii": "Kimba", "country": "Australia", "pop": "636", "iso3": "AUS", "iso2": "AU", "lat": "-33.14961871", "lng": "136.4333671"}, {"province": "South Australia", "city": "Streaky Bay", "city_ascii": "Streaky Bay", "country": "Australia", "pop": "614.5", "iso3": "AUS", "iso2": "AU", "lat": "-32.81187176", "lng": "134.2149296"}, {"province": "South Australia", "city": "Cowell", "city_ascii": "Cowell", "country": "Australia", "pop": "537", "iso3": "AUS", "iso2": "AU", "lat": "-33.68286782", "lng": "136.9166451"}, {"province": "South Australia", "city": "Tumby Bay", "city_ascii": "Tumby Bay", "country": "Australia", "pop": "1791", "iso3": "AUS", "iso2": "AU", "lat": "-34.38292845", "lng": "136.0833109"}, {"province": "South Australia", "city": "Andamooka", "city_ascii": "Andamooka", "country": "Australia", "pop": "528", "iso3": "AUS", "iso2": "AU", "lat": "-30.43097329", "lng": "137.1655704"}, {"province": "South Australia", "city": "Woomera", "city_ascii": "Woomera", "country": "Australia", "pop": "450", "iso3": "AUS", "iso2": "AU", "lat": "-31.14958576", "lng": "136.8000114"}, {"province": "South Australia", "city": "Port Pirie", "city_ascii": "Port Pirie", "country": "Australia", "pop": "12417", "iso3": "AUS", "iso2": "AU", "lat": "-33.19106321", "lng": "137.9900162"}, {"province": "South Australia", "city": "Gawler", "city_ascii": "Gawler", "country": "Australia", "pop": "15542.5", "iso3": "AUS", "iso2": "AU", "lat": "-34.60735919", "lng": "138.7263537"}, {"province": "South Australia", "city": "Murray Bridge", "city_ascii": "Murray Bridge", "country": "Australia", "pop": "14185.5", "iso3": "AUS", "iso2": "AU", "lat": "-35.12960122", "lng": "139.2600162"}, {"province": "South Australia", "city": "Victor Harbor", "city_ascii": "Victor Harbor", "country": "Australia", "pop": "7489", "iso3": "AUS", "iso2": "AU", "lat": "-35.55960081", "lng": "138.6173164"}, {"province": "Victoria", "city": "Hamilton", "city_ascii": "Hamilton", "country": "Australia", "pop": "6992.5", "iso3": "AUS", "iso2": "AU", "lat": "-37.73119953", "lng": "142.0234135"}, {"province": "Victoria", "city": "Ouyen", "city_ascii": "Ouyen", "country": "Australia", "pop": "912", "iso3": "AUS", "iso2": "AU", "lat": "-35.06619424", "lng": "142.3166772"}, {"province": "Victoria", "city": "Colac", "city_ascii": "Colac", "country": "Australia", "pop": "7450", "iso3": "AUS", "iso2": "AU", "lat": "-38.33953449", "lng": "143.5800109"}, {"province": "Victoria", "city": "Stawell", "city_ascii": "Stawell", "country": "Australia", "pop": "4596", "iso3": "AUS", "iso2": "AU", "lat": "-37.05961261", "lng": "142.7600093"}, {"province": "Victoria", "city": "Horsham", "city_ascii": "Horsham", "country": "Australia", "pop": "11985.5", "iso3": "AUS", "iso2": "AU", "lat": "-36.70960814", "lng": "142.1900183"}, {"province": "Victoria", "city": "Ararat", "city_ascii": "Ararat", "country": "Australia", "pop": "5464", "iso3": "AUS", "iso2": "AU", "lat": "-37.27954751", "lng": "142.9099743"}, {"province": "Victoria", "city": "Maryborough", "city_ascii": "Maryborough", "country": "Australia", "pop": "5838.5", "iso3": "AUS", "iso2": "AU", "lat": "-37.04958738", "lng": "143.729976"}, {"province": "Victoria", "city": "Bairnsdale", "city_ascii": "Bairnsdale", "country": "Australia", "pop": "9427", "iso3": "AUS", "iso2": "AU", "lat": "-37.82959145", "lng": "147.6099975"}, {"province": "Victoria", "city": "Sale", "city_ascii": "Sale", "country": "Australia", "pop": "17701.5", "iso3": "AUS", "iso2": "AU", "lat": "-38.10957436", "lng": "147.0600052"}, {"province": "Victoria", "city": "Traralgon", "city_ascii": "Traralgon", "country": "Australia", "pop": "16982.5", "iso3": "AUS", "iso2": "AU", "lat": "-38.19959471", "lng": "146.5300118"}, {"province": "Victoria", "city": "Wonthaggi", "city_ascii": "Wonthaggi", "country": "Australia", "pop": "4471.5", "iso3": "AUS", "iso2": "AU", "lat": "-38.60949217", "lng": "145.5900175"}, {"province": "Victoria", "city": "Cranbourne", "city_ascii": "Cranbourne", "country": "Australia", "pop": "249955", "iso3": "AUS", "iso2": "AU", "lat": "-38.09960081", "lng": "145.2833695"}, {"province": "Victoria", "city": "Ballarat", "city_ascii": "Ballarat", "country": "Australia", "pop": "73404", "iso3": "AUS", "iso2": "AU", "lat": "-37.55958209", "lng": "143.8400468"}, {"province": "Victoria", "city": "Melton", "city_ascii": "Melton", "country": "Australia", "pop": "29750", "iso3": "AUS", "iso2": "AU", "lat": "-37.68954832", "lng": "144.570028"}, {"province": "Victoria", "city": "Seymour", "city_ascii": "Seymour", "country": "Australia", "pop": "3693", "iso3": "AUS", "iso2": "AU", "lat": "-37.03423948", "lng": "145.1273067"}, {"province": "Victoria", "city": "Shepparton", "city_ascii": "Shepparton", "country": "Australia", "pop": "33430.5", "iso3": "AUS", "iso2": "AU", "lat": "-36.37458982", "lng": "145.3913732"}, {"province": "Victoria", "city": "Cobram", "city_ascii": "Cobram", "country": "Australia", "pop": "4659", "iso3": "AUS", "iso2": "AU", "lat": "-35.91963051", "lng": "145.6500138"}, {"province": "Victoria", "city": "Swan Hill", "city_ascii": "Swan Hill", "country": "Australia", "pop": "9073", "iso3": "AUS", "iso2": "AU", "lat": "-35.33961424", "lng": "143.5400134"}, {"province": "Victoria", "city": "Sunbury", "city_ascii": "Sunbury", "country": "Australia", "pop": "18677.5", "iso3": "AUS", "iso2": "AU", "lat": "-37.56960732", "lng": "144.7100195"}, {"province": "Queensland", "city": "Proserpine", "city_ascii": "Proserpine", "country": "Australia", "pop": "3976", "iso3": "AUS", "iso2": "AU", "lat": "-20.41623574", "lng": "148.5834781"}, {"province": "Queensland", "city": "Theodore", "city_ascii": "Theodore", "country": "Australia", "pop": "246", "iso3": "AUS", "iso2": "AU", "lat": "-24.94949909", "lng": "150.0833349"}, {"province": "Queensland", "city": "Eidsvold", "city_ascii": "Eidsvold", "country": "Australia", "pop": "459", "iso3": "AUS", "iso2": "AU", "lat": "-25.36621784", "lng": "151.1333483"}, {"province": "Queensland", "city": "Barcaldine", "city_ascii": "Barcaldine", "country": "Australia", "pop": "1068", "iso3": "AUS", "iso2": "AU", "lat": "-23.56617267", "lng": "145.2833695"}, {"province": "Queensland", "city": "Winton", "city_ascii": "Winton", "country": "Australia", "pop": "1157", "iso3": "AUS", "iso2": "AU", "lat": "-22.39962889", "lng": "143.0332743"}, {"province": "Queensland", "city": "Longreach", "city_ascii": "Longreach", "country": "Australia", "pop": "2894", "iso3": "AUS", "iso2": "AU", "lat": "-23.44959064", "lng": "144.2500476"}, {"province": "Queensland", "city": "Caboolture", "city_ascii": "Caboolture", "country": "Australia", "pop": "26495.5", "iso3": "AUS", "iso2": "AU", "lat": "-27.08296059", "lng": "152.9499816"}, {"province": "Queensland", "city": "Warwick", "city_ascii": "Warwick", "country": "Australia", "pop": "10024", "iso3": "AUS", "iso2": "AU", "lat": "-28.22924721", "lng": "152.0203226"}, {"province": "Queensland", "city": "Kingaroy", "city_ascii": "Kingaroy", "country": "Australia", "pop": "7494.5", "iso3": "AUS", "iso2": "AU", "lat": "-26.53896279", "lng": "151.840592"}, {"province": "Queensland", "city": "Dalby", "city_ascii": "Dalby", "country": "Australia", "pop": "9818.5", "iso3": "AUS", "iso2": "AU", "lat": "-27.19385822", "lng": "151.2657434"}, {"province": "Queensland", "city": "Bongaree", "city_ascii": "Bongaree", "country": "Australia", "pop": "10327.5", "iso3": "AUS", "iso2": "AU", "lat": "-27.07872313", "lng": "153.1508996"}, {"province": "Queensland", "city": "Gympie", "city_ascii": "Gympie", "country": "Australia", "pop": "11338", "iso3": "AUS", "iso2": "AU", "lat": "-26.18859658", "lng": "152.6709289"}, {"province": "Queensland", "city": "Ingham", "city_ascii": "Ingham", "country": "Australia", "pop": "5996.5", "iso3": "AUS", "iso2": "AU", "lat": "-18.64957355", "lng": "146.1666231"}, {"province": "Queensland", "city": "Birdsville", "city_ascii": "Birdsville", "country": "Australia", "pop": "283", "iso3": "AUS", "iso2": "AU", "lat": "-25.89962197", "lng": "139.3666247"}, {"province": "Queensland", "city": "Bedourie", "city_ascii": "Bedourie", "country": "Australia", "pop": "142", "iso3": "AUS", "iso2": "AU", "lat": "-24.34958738", "lng": "139.4666186"}, {"province": "Queensland", "city": "Boulia", "city_ascii": "Boulia", "country": "Australia", "pop": "402.5", "iso3": "AUS", "iso2": "AU", "lat": "-22.89959837", "lng": "139.9000288"}, {"province": "Queensland", "city": "Richmond", "city_ascii": "Richmond", "country": "Australia", "pop": "296", "iso3": "AUS", "iso2": "AU", "lat": "-20.71626911", "lng": "143.1333199"}, {"province": "Queensland", "city": "Burketown", "city_ascii": "Burketown", "country": "Australia", "pop": "186.5", "iso3": "AUS", "iso2": "AU", "lat": "-17.71609048", "lng": "139.5666125"}, {"province": "Queensland", "city": "Hervey Bay", "city_ascii": "Hervey Bay", "country": "Australia", "pop": "25114", "iso3": "AUS", "iso2": "AU", "lat": "-25.28870319", "lng": "152.8409444"}, {"province": "Queensland", "city": "Biloela", "city_ascii": "Biloela", "country": "Australia", "pop": "4366.5", "iso3": "AUS", "iso2": "AU", "lat": "-24.39356403", "lng": "150.4960746"}, {"province": "Queensland", "city": "Yeppoon", "city_ascii": "Yeppoon", "country": "Australia", "pop": "6450.5", "iso3": "AUS", "iso2": "AU", "lat": "-23.13291746", "lng": "150.7567305"}, {"province": "Queensland", "city": "Emerald", "city_ascii": "Emerald", "country": "Australia", "pop": "7489", "iso3": "AUS", "iso2": "AU", "lat": "-23.51222247", "lng": "148.1673278"}, {"province": "Queensland", "city": "Moranbah", "city_ascii": "Moranbah", "country": "Australia", "pop": "7357", "iso3": "AUS", "iso2": "AU", "lat": "-22.00156533", "lng": "148.0380334"}, {"province": "Queensland", "city": "Charters Towers", "city_ascii": "Charters Towers", "country": "Australia", "pop": "8369.5", "iso3": "AUS", "iso2": "AU", "lat": "-20.08090737", "lng": "146.2587105"}, {"province": "Queensland", "city": "Ayr", "city_ascii": "Ayr", "country": "Australia", "pop": "7166", "iso3": "AUS", "iso2": "AU", "lat": "-19.57024087", "lng": "147.3994677"}, {"province": "Queensland", "city": "Atherton", "city_ascii": "Atherton", "country": "Australia", "pop": "6132.5", "iso3": "AUS", "iso2": "AU", "lat": "-17.27027789", "lng": "145.469353"}, {"province": "Queensland", "city": "Port Douglas", "city_ascii": "Port Douglas", "country": "Australia", "pop": "2004.5", "iso3": "AUS", "iso2": "AU", "lat": "-16.48458812", "lng": "145.4587219"}, {"province": "Tasmania", "city": "Smithton", "city_ascii": "Smithton", "country": "Australia", "pop": "3351", "iso3": "AUS", "iso2": "AU", "lat": "-40.83292234", "lng": "145.1166613"}, {"province": "Tasmania", "city": "Scottsdale", "city_ascii": "Scottsdale", "country": "Australia", "pop": "1683.5", "iso3": "AUS", "iso2": "AU", "lat": "-41.14949217", "lng": "147.5166699"}, {"province": "Tasmania", "city": "Bicheno", "city_ascii": "Bicheno", "country": "Australia", "pop": "177", "iso3": "AUS", "iso2": "AU", "lat": "-41.87838825", "lng": "148.2886124"}, {"province": "Tasmania", "city": "Oatlands", "city_ascii": "Oatlands", "country": "Australia", "pop": "1157", "iso3": "AUS", "iso2": "AU", "lat": "-42.29960285", "lng": "147.3666015"}, {"province": "Tasmania", "city": "Queenstown", "city_ascii": "Queenstown", "country": "Australia", "pop": "1658", "iso3": "AUS", "iso2": "AU", "lat": "-42.08292356", "lng": "145.5500199"}, {"province": "Tasmania", "city": "Kingston", "city_ascii": "Kingston", "country": "Australia", "pop": "12652", "iso3": "AUS", "iso2": "AU", "lat": "-42.99113686", "lng": "147.3084139"}, {"province": "Northern Territory", "city": "Tennant Creek", "city_ascii": "Tennant Creek", "country": "Australia", "pop": "3490.5", "iso3": "AUS", "iso2": "AU", "lat": "-19.65002928", "lng": "134.200015"}, {"province": "Northern Territory", "city": "Yulara", "city_ascii": "Yulara", "country": "Australia", "pop": "930", "iso3": "AUS", "iso2": "AU", "lat": "-25.24054075", "lng": "130.9888932"}, {"province": "Northern Territory", "city": "Erldunda", "city_ascii": "Erldunda", "country": "Australia", "pop": "10", "iso3": "AUS", "iso2": "AU", "lat": "-25.23330605", "lng": "133.1999727"}, {"province": "Western Australia", "city": "Norseman", "city_ascii": "Norseman", "country": "Australia", "pop": "1004", "iso3": "AUS", "iso2": "AU", "lat": "-32.20001259", "lng": "121.7666137"}, {"province": "Western Australia", "city": "Halls Creek", "city_ascii": "Halls Creek", "country": "Australia", "pop": "1209", "iso3": "AUS", "iso2": "AU", "lat": "-18.26670286", "lng": "127.7667126"}, {"province": "Western Australia", "city": "Kununurra", "city_ascii": "Kununurra", "country": "Australia", "pop": "5229.5", "iso3": "AUS", "iso2": "AU", "lat": "-15.76659707", "lng": "128.7333203"}, {"province": "Western Australia", "city": "Derby", "city_ascii": "Derby", "country": "Australia", "pop": "3199", "iso3": "AUS", "iso2": "AU", "lat": "-17.29999184", "lng": "123.9666345"}, {"province": "Western Australia", "city": "Onslow", "city_ascii": "Onslow", "country": "Australia", "pop": "573", "iso3": "AUS", "iso2": "AU", "lat": "-21.65759354", "lng": "115.0962959"}, {"province": "Western Australia", "city": "Exmouth", "city_ascii": "Exmouth", "country": "Australia", "pop": "1085", "iso3": "AUS", "iso2": "AU", "lat": "-21.93109987", "lng": "114.1233469"}, {"province": "Western Australia", "city": "Carnarvon", "city_ascii": "Carnarvon", "country": "Australia", "pop": "7392", "iso3": "AUS", "iso2": "AU", "lat": "-24.89983803", "lng": "113.6501066"}, {"province": "Western Australia", "city": "Newman", "city_ascii": "Newman", "country": "Australia", "pop": "2678", "iso3": "AUS", "iso2": "AU", "lat": "-23.36659829", "lng": "119.7333011"}, {"province": "Western Australia", "city": "Meekatharra", "city_ascii": "Meekatharra", "country": "Australia", "pop": "654", "iso3": "AUS", "iso2": "AU", "lat": "-26.59999266", "lng": "118.4832999"}, {"province": "Western Australia", "city": "Three Springs", "city_ascii": "Three Springs", "country": "Australia", "pop": "190", "iso3": "AUS", "iso2": "AU", "lat": "-29.53330198", "lng": "115.7499784"}, {"province": "Western Australia", "city": "Manjimup", "city_ascii": "Manjimup", "country": "Australia", "pop": "4016.5", "iso3": "AUS", "iso2": "AU", "lat": "-34.23332518", "lng": "116.1500057"}, {"province": "Western Australia", "city": "Northam", "city_ascii": "Northam", "country": "Australia", "pop": "5330", "iso3": "AUS", "iso2": "AU", "lat": "-31.65658323", "lng": "116.6533858"}, {"province": "Western Australia", "city": "Esperance", "city_ascii": "Esperance", "country": "Australia", "pop": "7205", "iso3": "AUS", "iso2": "AU", "lat": "-33.857307", "lng": "121.8888973"}, {"province": "Western Australia", "city": "Leonara", "city_ascii": "Leonara", "country": "Australia", "pop": "227", "iso3": "AUS", "iso2": "AU", "lat": "-28.88150714", "lng": "121.3280358"}, {"province": "Western Australia", "city": "Laverton", "city_ascii": "Laverton", "country": "Australia", "pop": "316", "iso3": "AUS", "iso2": "AU", "lat": "-28.62700071", "lng": "122.4040425"}, {"province": "Western Australia", "city": "Wyndham", "city_ascii": "Wyndham", "country": "Australia", "pop": "734.5", "iso3": "AUS", "iso2": "AU", "lat": "-15.37395953", "lng": "128.3600614"},